{"type":"FeatureCollection","features":[{"type":"Feature","properties":{"FID":0,"line":"4-6-6 Express","name":"Astor Pl","notes":"4 nights, 6-all times, 6 Express-weekdays AM southbound, PM northbound","objectid":1,"FacilityID":1420,"ADAoneway":0,"ADA":0,"ADA_New":0},"geometry":{"type":"Point","coordinates":[-73.99106999861966,40.73005400028978]}},{"type":"Feature","properties":{"FID":1,"line":"4-6-6 Express","name":"Canal St","notes":"4 nights, 6-all times, 6 Express-weekdays AM southbound, PM northbound","objectid":2,"FacilityID":1421,"ADAoneway":0,"ADA":1,"ADA_New":0},"geometry":{"type":"Point","coordinates":[-74.00019299927328,40.71880300107709]}},{"type":"Feature","properties":{"FID":2,"line":"1-2","name":"50th St","notes":"1-all times, 2-nights","objectid":3,"FacilityID":1422,"ADAoneway":0,"ADA":0,"ADA_New":0},"geometry":{"type":"Point","coordinates":[-73.98384899986625,40.76172799961419]}},{"type":"Feature","properties":{"FID":3,"line":"2-3-4","name":"Bergen St","notes":"4-nights, 3-all other times, 2-all times","objectid":4,"FacilityID":1423,"ADAoneway":0,"ADA":0,"ADA_New":0},"geometry":{"type":"Point","coordinates":[-73.97499915116808,40.68086213682956]}},{"type":"Feature","properties":{"FID":4,"line":"3-4","name":"Pennsylvania Ave","notes":"4-nights, 3-all other times","objectid":5,"FacilityID":1424,"ADAoneway":0,"ADA":0,"ADA_New":0},"geometry":{"type":"Point","coordinates":[-73.89488591154061,40.66471445143568]}},{"type":"Feature","properties":{"FID":5,"line":"1","name":"238th St","notes":"1-all times, exit only northbound","objectid":6,"FacilityID":1425,"ADAoneway":0,"ADA":0,"ADA_New":0},"geometry":{"type":"Point","coordinates":[-73.90087000018522,40.88466700064975]}},{"type":"Feature","properties":{"FID":6,"line":"A-B-C","name":"Cathedral Pkwy (110th St)","notes":"A-nights, B-weekdays and evenings, C-all times exc nights","objectid":7,"FacilityID":1426,"ADAoneway":0,"ADA":0,"ADA_New":0},"geometry":{"type":"Point","coordinates":[-73.95806670661364,40.800581558114956]}},{"type":"Feature","properties":{"FID":7,"line":"A-C","name":"Kingston - Throop Aves","notes":"A-nights, C-all other times","objectid":8,"FacilityID":1427,"ADAoneway":0,"ADA":0,"ADA_New":0},"geometry":{"type":"Point","coordinates":[-73.94085899871263,40.67991899941601]}},{"type":"Feature","properties":{"FID":8,"line":"E-M-R","name":"65th St","notes":"E-nights, R-all other times, M-weekdays and evenings","objectid":9,"FacilityID":1428,"ADAoneway":0,"ADA":0,"ADA_New":0},"geometry":{"type":"Point","coordinates":[-73.8987883783301,40.74971952935675]}},{"type":"Feature","properties":{"FID":9,"line":"E-M-R","name":"36th St","notes":"E-nights, R-all other times, M-weekdays and evenings","objectid":10,"FacilityID":1429,"ADAoneway":0,"ADA":0,"ADA_New":0},"geometry":{"type":"Point","coordinates":[-73.92901818461539,40.75196004401078]}},{"type":"Feature","properties":{"FID":10,"line":"J-M-Z","name":"Delancey St - Essex St","notes":"J-all times, M-all times exc nights, Z-rush hours AM westbound, PM eastbound","objectid":11,"FacilityID":1430,"ADAoneway":0,"ADA":0,"ADA_New":1},"geometry":{"type":"Point","coordinates":[-73.98740940202974,40.71830605618619]}},{"type":"Feature","properties":{"FID":11,"line":"J-Z","name":"Van Siclen Ave","notes":"Z-rush hours AM westbound, PM eastbound, J-all other times","objectid":12,"FacilityID":1431,"ADAoneway":0,"ADA":0,"ADA_New":0},"geometry":{"type":"Point","coordinates":[-73.89165772702445,40.67802821447783]}},{"type":"Feature","properties":{"FID":12,"line":"J-Z","name":"Norwood Ave","notes":"Z-rush hours AM westbound, PM eastbound, J-all other times","objectid":13,"FacilityID":1432,"ADAoneway":0,"ADA":0,"ADA_New":1},"geometry":{"type":"Point","coordinates":[-73.87962599910783,40.68152000045683]}},{"type":"Feature","properties":{"FID":13,"line":"J-Z","name":"104th-102nd Sts","notes":"Z-rush hours AM westbound, PM eastbound, J-all other times","objectid":14,"FacilityID":1433,"ADAoneway":0,"ADA":0,"ADA_New":0},"geometry":{"type":"Point","coordinates":[-73.84443500029684,40.69516599823373]}},{"type":"Feature","properties":{"FID":14,"line":"B-D-N-Q-R","name":"DeKalb Ave","notes":"B-weekdays and evenings, D-all other times, N-nights, R-all other times, Q-all times","objectid":15,"FacilityID":1434,"ADAoneway":0,"ADA":1,"ADA_New":0},"geometry":{"type":"Point","coordinates":[-73.98177094440949,40.690648119969794]}},{"type":"Feature","properties":{"FID":15,"line":"A-S","name":"Beach 105th St","notes":"A-rush hours AM northbound, PM southbound, S Broad Channel to Rockaway Park-all times","objectid":16,"FacilityID":1435,"ADAoneway":0,"ADA":0,"ADA_New":0},"geometry":{"type":"Point","coordinates":[-73.82758075034528,40.58326843810286]}},{"type":"Feature","properties":{"FID":16,"line":"A-S","name":"Beach 90th St","notes":"A-rush hours AM northbound, PM southbound, S Broad Channel to Rockaway Park-all times","objectid":17,"FacilityID":1436,"ADAoneway":0,"ADA":0,"ADA_New":0},"geometry":{"type":"Point","coordinates":[-73.81365140419632,40.58809156457325]}},{"type":"Feature","properties":{"FID":17,"line":"2-5","name":"Freeman St","notes":"2-all times, 5-all times exc nights, skips rush hours AM southbound, PM northbound","objectid":18,"FacilityID":1437,"ADAoneway":0,"ADA":0,"ADA_New":0},"geometry":{"type":"Point","coordinates":[-73.89175225349464,40.829987446384116]}},{"type":"Feature","properties":{"FID":18,"line":"2-5","name":"Intervale Ave","notes":"2-all times, 5-all times exc nights, skips rush hours AM southbound, PM northbound","objectid":19,"FacilityID":1438,"ADAoneway":0,"ADA":0,"ADA_New":0},"geometry":{"type":"Point","coordinates":[-73.89661738461646,40.822142131170786]}},{"type":"Feature","properties":{"FID":19,"line":"B-D","name":"182nd-183rd Sts","notes":"B-rush hours, D-all times, skips rush hours AM southbound, PM northbound","objectid":20,"FacilityID":1439,"ADAoneway":0,"ADA":0,"ADA_New":0},"geometry":{"type":"Point","coordinates":[-73.90074099998965,40.85609299881864]}},{"type":"Feature","properties":{"FID":20,"line":"B-D","name":"174th-175th Sts","notes":"B-rush hours, D-all times, skips rush hours AM southbound, PM northbound","objectid":21,"FacilityID":1440,"ADAoneway":0,"ADA":0,"ADA_New":0},"geometry":{"type":"Point","coordinates":[-73.91013600050078,40.84589999983414]}},{"type":"Feature","properties":{"FID":21,"line":"B-D","name":"167th St","notes":"B-rush hours, D-all times, skips rush hours AM southbound, PM northbound","objectid":22,"FacilityID":1441,"ADAoneway":0,"ADA":0,"ADA_New":1},"geometry":{"type":"Point","coordinates":[-73.91843200082253,40.83376899862797]}},{"type":"Feature","properties":{"FID":22,"line":"7-7 Express","name":"Mets - Willets Point","notes":"7-all times, 7 Express-rush hours AM westbound, PM eastbound","objectid":23,"FacilityID":1442,"ADAoneway":0,"ADA":0,"ADA_New":0},"geometry":{"type":"Point","coordinates":[-73.8456249984179,40.75462199881262]}},{"type":"Feature","properties":{"FID":23,"line":"7-7 Express","name":"Junction Blvd","notes":"7-all times, 7 Express-rush hours AM westbound, PM eastbound","objectid":24,"FacilityID":1443,"ADAoneway":0,"ADA":1,"ADA_New":0},"geometry":{"type":"Point","coordinates":[-73.86952700103515,40.74914499948836]}},{"type":"Feature","properties":{"FID":24,"line":"7-7 Express","name":"Flushing - Main St","notes":"7-all times, 7 Express-rush hours AM westbound, PM eastbound","objectid":25,"FacilityID":1444,"ADAoneway":0,"ADA":1,"ADA_New":0},"geometry":{"type":"Point","coordinates":[-73.83003000262508,40.75959999915012]}},{"type":"Feature","properties":{"FID":25,"line":"6-6 Express","name":"Buhre Ave","notes":"6 Express-weekdays AM southbound, PM northbound, 6-all other times","objectid":26,"FacilityID":1445,"ADAoneway":0,"ADA":0,"ADA_New":0},"geometry":{"type":"Point","coordinates":[-73.83256900003744,40.846809998885504]}},{"type":"Feature","properties":{"FID":26,"line":"6-6 Express","name":"3rd Ave - 138th St","notes":"6-all times, 6 Express-weekdays AM southbound, PM northbound","objectid":27,"FacilityID":1446,"ADAoneway":0,"ADA":0,"ADA_New":1},"geometry":{"type":"Point","coordinates":[-73.92613800014134,40.81047600117261]}},{"type":"Feature","properties":{"FID":27,"line":"6-6 Express","name":"Castle Hill Ave","notes":"6 Express-weekdays AM southbound, PM northbound, 6-all other times","objectid":28,"FacilityID":1447,"ADAoneway":0,"ADA":0,"ADA_New":0},"geometry":{"type":"Point","coordinates":[-73.85122199961472,40.83425499825462]}},{"type":"Feature","properties":{"FID":28,"line":"4-5-6-6 Express","name":"Brooklyn Bridge - City Hall","notes":"4,6-all times, 5-all times exc nights, 6 Express-weekdays AM southbound, PM northbound","objectid":29,"FacilityID":1448,"ADAoneway":0,"ADA":1,"ADA_New":0},"geometry":{"type":"Point","coordinates":[-74.0041310005885,40.713064999433136]}},{"type":"Feature","properties":{"FID":29,"line":"6-6 Express","name":"Zerega Ave","notes":"6 Express-weekdays AM southbound, PM northbound, 6-all other times","objectid":30,"FacilityID":1449,"ADAoneway":0,"ADA":0,"ADA_New":0},"geometry":{"type":"Point","coordinates":[-73.8470359987544,40.836488000608156]}},{"type":"Feature","properties":{"FID":30,"line":"4-5-6-6 Express","name":"Grand Central - 42nd St","notes":"4,6-all times, 5-all times exc nights, 6 Express-weekdays AM southbound, PM northbound","objectid":31,"FacilityID":1450,"ADAoneway":0,"ADA":1,"ADA_New":0},"geometry":{"type":"Point","coordinates":[-73.9767132992584,40.75180742981634]}},{"type":"Feature","properties":{"FID":31,"line":"4-6-6 Express","name":"33rd St","notes":"4 nights, 6-all times, 6 Express-weekdays AM southbound, PM northbound","objectid":32,"FacilityID":1451,"ADAoneway":0,"ADA":0,"ADA_New":0},"geometry":{"type":"Point","coordinates":[-73.98207600148947,40.74608099909145]}},{"type":"Feature","properties":{"FID":32,"line":"4-6-6 Express","name":"96th St","notes":"4 nights, 6-all times, 6 Express-weekdays AM southbound, PM northbound","objectid":33,"FacilityID":1452,"ADAoneway":0,"ADA":0,"ADA_New":0},"geometry":{"type":"Point","coordinates":[-73.9510700015425,40.78567199998607]}},{"type":"Feature","properties":{"FID":33,"line":"4-6-6 Express","name":"77th St","notes":"4 nights, 6-all times, 6 Express-weekdays AM southbound, PM northbound","objectid":34,"FacilityID":1453,"ADAoneway":0,"ADA":0,"ADA_New":0},"geometry":{"type":"Point","coordinates":[-73.95987399886047,40.77362000074615]}},{"type":"Feature","properties":{"FID":34,"line":"J-Z","name":"Chauncey St","notes":"Z-rush hours AM westbound, PM eastbound, J-all other times","objectid":35,"FacilityID":1454,"ADAoneway":0,"ADA":0,"ADA_New":0},"geometry":{"type":"Point","coordinates":[-73.91038357033376,40.68285130087804]}},{"type":"Feature","properties":{"FID":35,"line":"D-N-R","name":"Union St","notes":"D,N-nights, R-all other times","objectid":36,"FacilityID":1455,"ADAoneway":0,"ADA":0,"ADA_New":0},"geometry":{"type":"Point","coordinates":[-73.98310999909673,40.67731566735096]}},{"type":"Feature","properties":{"FID":36,"line":"E-M-R","name":"Elmhurst Ave","notes":"E-nights, R-all other times, M-weekdays and evenings","objectid":37,"FacilityID":1456,"ADAoneway":0,"ADA":0,"ADA_New":0},"geometry":{"type":"Point","coordinates":[-73.8820347465864,40.74237007972169]}},{"type":"Feature","properties":{"FID":37,"line":"A-C","name":"Ralph Ave","notes":"A-nights, C-all other times","objectid":38,"FacilityID":1457,"ADAoneway":0,"ADA":0,"ADA_New":0},"geometry":{"type":"Point","coordinates":[-73.92078599933306,40.678822000873375]}},{"type":"Feature","properties":{"FID":38,"line":"2-5","name":"Pelham Pkwy","notes":"2-all times, 5-rush hours AM southbound, PM northbound","objectid":39,"FacilityID":1458,"ADAoneway":0,"ADA":1,"ADA_New":0},"geometry":{"type":"Point","coordinates":[-73.86748067850041,40.8571924091606]}},{"type":"Feature","properties":{"FID":39,"line":"2-5","name":"Gun Hill Rd","notes":"2-all times, 5-rush hours AM southbound, PM northbound","objectid":40,"FacilityID":1459,"ADAoneway":0,"ADA":1,"ADA_New":0},"geometry":{"type":"Point","coordinates":[-73.86613410538703,40.877839385172024]}},{"type":"Feature","properties":{"FID":40,"line":"2-5","name":"Nereid Ave (238 St)","notes":"2-all times, 5-rush hours AM southbound, PM northbound","objectid":41,"FacilityID":1460,"ADAoneway":0,"ADA":0,"ADA_New":0},"geometry":{"type":"Point","coordinates":[-73.8543153107622,40.898286515575286]}},{"type":"Feature","properties":{"FID":41,"line":"2-3-4-5","name":"Franklin Ave","notes":"2,4-all times, 3-all times exc nights, 5-weekdays","objectid":42,"FacilityID":1461,"ADAoneway":0,"ADA":0,"ADA_New":0},"geometry":{"type":"Point","coordinates":[-73.9580997367769,40.67076515344894]}},{"type":"Feature","properties":{"FID":42,"line":"2-5","name":"Simpson St","notes":"2-all times, 5-all times exc nights, skips rush hours AM southbound, PM northbound","objectid":43,"FacilityID":1462,"ADAoneway":0,"ADA":1,"ADA_New":0},"geometry":{"type":"Point","coordinates":[-73.89306639507903,40.823976841237396]}},{"type":"Feature","properties":{"FID":43,"line":"2-5","name":"Bronx Park East","notes":"2-all times, 5-rush hours AM southbound, PM northbound","objectid":44,"FacilityID":1463,"ADAoneway":0,"ADA":0,"ADA_New":0},"geometry":{"type":"Point","coordinates":[-73.86835609178098,40.848768666338934]}},{"type":"Feature","properties":{"FID":44,"line":"2-5","name":"Winthrop St","notes":"2-all times, 5-weekdays","objectid":45,"FacilityID":1464,"ADAoneway":0,"ADA":0,"ADA_New":0},"geometry":{"type":"Point","coordinates":[-73.95007934590994,40.65665931376077]}},{"type":"Feature","properties":{"FID":45,"line":"3-4","name":"Van Siclen Ave","notes":"4-nights, 3-all other times","objectid":46,"FacilityID":1465,"ADAoneway":0,"ADA":0,"ADA_New":0},"geometry":{"type":"Point","coordinates":[-73.88940491730106,40.665517963059635]}},{"type":"Feature","properties":{"FID":46,"line":"4","name":"149th St - Grand Concourse","notes":"4-all times","objectid":47,"FacilityID":1466,"ADAoneway":0,"ADA":0,"ADA_New":0},"geometry":{"type":"Point","coordinates":[-73.9273847542618,40.81830344372315]}},{"type":"Feature","properties":{"FID":47,"line":"4","name":"161st St - Yankee Stadium","notes":"4-all times","objectid":48,"FacilityID":1467,"ADAoneway":0,"ADA":1,"ADA_New":0},"geometry":{"type":"Point","coordinates":[-73.92569199505733,40.82823032742169]}},{"type":"Feature","properties":{"FID":48,"line":"4-5-6-6 Express","name":"Lexington Ave - 59th St","notes":"4,6-all times, 5-all times exc nights, 6 Express-weekdays AM southbound, PM northbound","objectid":49,"FacilityID":1468,"ADAoneway":0,"ADA":0,"ADA_New":0},"geometry":{"type":"Point","coordinates":[-73.9679670004732,40.762526000304575]}},{"type":"Feature","properties":{"FID":49,"line":"6","name":"E 149th St","notes":"6-all times","objectid":50,"FacilityID":1469,"ADAoneway":0,"ADA":0,"ADA_New":1},"geometry":{"type":"Point","coordinates":[-73.90409799875945,40.81211799827203]}},{"type":"Feature","properties":{"FID":50,"line":"6","name":"Morrison Av - Soundview","notes":"6-all times","objectid":51,"FacilityID":1470,"ADAoneway":0,"ADA":0,"ADA_New":0},"geometry":{"type":"Point","coordinates":[-73.87451599929486,40.82952100156747]}},{"type":"Feature","properties":{"FID":51,"line":"6","name":"Whitlock Ave","notes":"6-all times","objectid":52,"FacilityID":1471,"ADAoneway":0,"ADA":0,"ADA_New":0},"geometry":{"type":"Point","coordinates":[-73.8862829985325,40.82652500055904]}},{"type":"Feature","properties":{"FID":52,"line":"6","name":"St Lawrence Ave","notes":"6-all times","objectid":53,"FacilityID":1472,"ADAoneway":0,"ADA":0,"ADA_New":0},"geometry":{"type":"Point","coordinates":[-73.86761799923673,40.8315090005233]}},{"type":"Feature","properties":{"FID":53,"line":"7-7 Express","name":"Woodside - 61st St","notes":"7-all times, 7 Express-rush hours AM westbound, PM eastbound","objectid":54,"FacilityID":1473,"ADAoneway":0,"ADA":1,"ADA_New":0},"geometry":{"type":"Point","coordinates":[-73.90298400173006,40.745630001138395]}},{"type":"Feature","properties":{"FID":54,"line":"A","name":"Far Rockaway - Mott Ave","notes":"A-all times","objectid":55,"FacilityID":1474,"ADAoneway":0,"ADA":1,"ADA_New":0},"geometry":{"type":"Point","coordinates":[-73.75540499924732,40.603995001687544]}},{"type":"Feature","properties":{"FID":55,"line":"A-B-C","name":"72nd St","notes":"A-nights, B-weekdays and evenings, C-all times exc nights","objectid":56,"FacilityID":1475,"ADAoneway":0,"ADA":0,"ADA_New":0},"geometry":{"type":"Point","coordinates":[-73.976336575218,40.77551939729258]}},{"type":"Feature","properties":{"FID":56,"line":"A-B-C","name":"96th St","notes":"A-nights, B-weekdays and evenings, C-all times exc nights","objectid":57,"FacilityID":1476,"ADAoneway":0,"ADA":0,"ADA_New":1},"geometry":{"type":"Point","coordinates":[-73.96460245687166,40.79161879767014]}},{"type":"Feature","properties":{"FID":57,"line":"A-C","name":"168th St","notes":"A-all times, C-all times exc nights","objectid":58,"FacilityID":1477,"ADAoneway":0,"ADA":1,"ADA_New":0},"geometry":{"type":"Point","coordinates":[-73.93956099985425,40.84071899990795]}},{"type":"Feature","properties":{"FID":58,"line":"B-D","name":"Kingsbridge Rd","notes":"B-rush hours, D-all times","objectid":59,"FacilityID":1478,"ADAoneway":0,"ADA":1,"ADA_New":0},"geometry":{"type":"Point","coordinates":[-73.8935090000331,40.86697799999945]}},{"type":"Feature","properties":{"FID":59,"line":"B-D-F-M","name":"42nd St - Bryant Pk","notes":"B,M-weekdays and evenings, D,F-all times","objectid":60,"FacilityID":1479,"ADAoneway":0,"ADA":0,"ADA_New":1},"geometry":{"type":"Point","coordinates":[-73.98459099904711,40.754184001312545]}},{"type":"Feature","properties":{"FID":60,"line":"B-Q-S","name":"Prospect Park","notes":"B-weekdays and evenings, Q,S to Franklin Av-Fulton St-all times","objectid":61,"FacilityID":1480,"ADAoneway":0,"ADA":0,"ADA_New":0},"geometry":{"type":"Point","coordinates":[-73.96203130426609,40.6616334551018]}},{"type":"Feature","properties":{"FID":61,"line":"D","name":"55th St","notes":"D-all times","objectid":62,"FacilityID":1481,"ADAoneway":0,"ADA":0,"ADA_New":0},"geometry":{"type":"Point","coordinates":[-73.99534882595742,40.63147876093745]}},{"type":"Feature","properties":{"FID":62,"line":"E","name":"Jamaica - Van Wyck","notes":"E-all times","objectid":63,"FacilityID":1482,"ADAoneway":0,"ADA":1,"ADA_New":0},"geometry":{"type":"Point","coordinates":[-73.81701287135405,40.70289855287313]}},{"type":"Feature","properties":{"FID":63,"line":"E-F","name":"Kew Gardens - Union Tpke","notes":"E,F-all times","objectid":64,"FacilityID":1483,"ADAoneway":0,"ADA":1,"ADA_New":0},"geometry":{"type":"Point","coordinates":[-73.8303702709878,40.714034819571026]}},{"type":"Feature","properties":{"FID":64,"line":"E-J-Z","name":"Sutphin Blvd - Archer Av","notes":"E,J-all times, Z-rush hours AM westbound, PM eastbound","objectid":65,"FacilityID":1484,"ADAoneway":0,"ADA":1,"ADA_New":0},"geometry":{"type":"Point","coordinates":[-73.80800471963833,40.700382424235]}},{"type":"Feature","properties":{"FID":65,"line":"E-M","name":"Court Sq - 23rd St","notes":"E-all times, M-weekdays and evenings","objectid":66,"FacilityID":1485,"ADAoneway":0,"ADA":0,"ADA_New":1},"geometry":{"type":"Point","coordinates":[-73.94605470266329,40.747768121414325]}},{"type":"Feature","properties":{"FID":66,"line":"E-M-R","name":"67th Ave","notes":"E-nights, R-all other times, M-weekdays and evenings","objectid":67,"FacilityID":1486,"ADAoneway":0,"ADA":0,"ADA_New":0},"geometry":{"type":"Point","coordinates":[-73.85286048434907,40.726505475813006]}},{"type":"Feature","properties":{"FID":67,"line":"E-M-R","name":"Grand Ave - Newtown","notes":"E-nights, R-all other times, M-weekdays and evenings","objectid":68,"FacilityID":1487,"ADAoneway":0,"ADA":0,"ADA_New":0},"geometry":{"type":"Point","coordinates":[-73.87722085669182,40.736813418197144]}},{"type":"Feature","properties":{"FID":68,"line":"F","name":"Ditmas Ave","notes":"F-all times","objectid":69,"FacilityID":1488,"ADAoneway":0,"ADA":0,"ADA_New":0},"geometry":{"type":"Point","coordinates":[-73.97817199965161,40.63611866666291]}},{"type":"Feature","properties":{"FID":69,"line":"G","name":"Classon Ave","notes":"G-all times","objectid":70,"FacilityID":1489,"ADAoneway":0,"ADA":0,"ADA_New":1},"geometry":{"type":"Point","coordinates":[-73.95999000137212,40.68888900026455]}},{"type":"Feature","properties":{"FID":70,"line":"G","name":"Broadway","notes":"G-all times","objectid":71,"FacilityID":1490,"ADAoneway":0,"ADA":0,"ADA_New":0},"geometry":{"type":"Point","coordinates":[-73.95031225606621,40.706126576274166]}},{"type":"Feature","properties":{"FID":71,"line":"L","name":"Lorimer St","notes":"L-all times","objectid":72,"FacilityID":1491,"ADAoneway":0,"ADA":0,"ADA_New":1},"geometry":{"type":"Point","coordinates":[-73.95024799996972,40.71407200064717]}},{"type":"Feature","properties":{"FID":72,"line":"L","name":"Sutter Ave","notes":"L-all times","objectid":73,"FacilityID":1492,"ADAoneway":0,"ADA":0,"ADA_New":0},"geometry":{"type":"Point","coordinates":[-73.9019160004208,40.66914500061398]}},{"type":"Feature","properties":{"FID":73,"line":"L","name":"Wilson Ave","notes":"L-all times","objectid":74,"FacilityID":1493,"ADAoneway":1,"ADA":0,"ADA_New":0},"geometry":{"type":"Point","coordinates":[-73.90395860491864,40.68886654246024]}},{"type":"Feature","properties":{"FID":74,"line":"J","name":"Halsey St","notes":"J-all times","objectid":75,"FacilityID":1494,"ADAoneway":0,"ADA":0,"ADA_New":0},"geometry":{"type":"Point","coordinates":[-73.9166388842194,40.686415270704344]}},{"type":"Feature","properties":{"FID":75,"line":"J-M","name":"Lorimer St","notes":"J-all times, skips weekdays AM westbound, PM eastbound, M-all times exc nights","objectid":76,"FacilityID":1495,"ADAoneway":0,"ADA":0,"ADA_New":0},"geometry":{"type":"Point","coordinates":[-73.94735499884204,40.703844000042096]}},{"type":"Feature","properties":{"FID":76,"line":"N","name":"8th Ave","notes":"N-all times","objectid":77,"FacilityID":1496,"ADAoneway":1,"ADA":0,"ADA_New":0},"geometry":{"type":"Point","coordinates":[-74.01151599772157,40.634970999647166]}},{"type":"Feature","properties":{"FID":77,"line":"N-W","name":"36th Ave","notes":"N-all times, W part time","objectid":78,"FacilityID":1497,"ADAoneway":0,"ADA":0,"ADA_New":0},"geometry":{"type":"Point","coordinates":[-73.929861999118,40.7564420005104]}},{"type":"Feature","properties":{"FID":78,"line":"N-W","name":"Broadway","notes":"N-all times, W part time","objectid":79,"FacilityID":1498,"ADAoneway":0,"ADA":0,"ADA_New":1},"geometry":{"type":"Point","coordinates":[-73.92582299919906,40.761431998800546]}},{"type":"Feature","properties":{"FID":79,"line":"N-Q-R-W","name":"Times Sq - 42nd St","notes":"N,Q-all times, R-all times exc nights, W part time","objectid":80,"FacilityID":1499,"ADAoneway":0,"ADA":1,"ADA_New":0},"geometry":{"type":"Point","coordinates":[-73.98676800153976,40.75461199851542]}},{"type":"Feature","properties":{"FID":80,"line":"S","name":"Grand Central - 42nd St","notes":"S to Times Sq-all times exc nights, closed nights-use 7","objectid":81,"FacilityID":1500,"ADAoneway":0,"ADA":0,"ADA_New":0},"geometry":{"type":"Point","coordinates":[-73.97918899989101,40.75276866674217]}},{"type":"Feature","properties":{"FID":81,"line":"S","name":"Park Pl","notes":"S Franklin Av-Fulton St to Prospect Park-all times","objectid":82,"FacilityID":1501,"ADAoneway":0,"ADA":1,"ADA_New":0},"geometry":{"type":"Point","coordinates":[-73.95762400074634,40.67477166685263]}},{"type":"Feature","properties":{"FID":82,"line":"A-S","name":"111th St","notes":"S Euclid Av to Ozone Park-Lefferts Blvd-nights, A-all other times","objectid":83,"FacilityID":1502,"ADAoneway":0,"ADA":0,"ADA_New":0},"geometry":{"type":"Point","coordinates":[-73.83216299845388,40.68433100001238]}},{"type":"Feature","properties":{"FID":83,"line":"B-D-F-M","name":"W 4th St - Washington Sq (Lower)","notes":"B,M-weekdays and evenings, D,F-all times","objectid":84,"FacilityID":1503,"ADAoneway":0,"ADA":1,"ADA_New":0},"geometry":{"type":"Point","coordinates":[-74.00030814755975,40.732254493367876]}},{"type":"Feature","properties":{"FID":84,"line":"4-6-6 Express","name":"51st St","notes":"4 nights, 6-all times, 6 Express-weekdays AM southbound, PM northbound","objectid":85,"FacilityID":1504,"ADAoneway":0,"ADA":1,"ADA_New":0},"geometry":{"type":"Point","coordinates":[-73.97192000069982,40.75710699989316]}},{"type":"Feature","properties":{"FID":85,"line":"1-2","name":"86th St","notes":"1-all times, 2-nights","objectid":86,"FacilityID":1505,"ADAoneway":0,"ADA":0,"ADA_New":0},"geometry":{"type":"Point","coordinates":[-73.97621799859327,40.78864400073892]}},{"type":"Feature","properties":{"FID":86,"line":"2-5","name":"233rd St","notes":"2-all times, 5-rush hours AM southbound, PM northbound","objectid":87,"FacilityID":1506,"ADAoneway":0,"ADA":1,"ADA_New":0},"geometry":{"type":"Point","coordinates":[-73.85736239521543,40.89314324138378]}},{"type":"Feature","properties":{"FID":87,"line":"1-2","name":"66th St - Lincoln Ctr","notes":"1-all times, 2-nights","objectid":88,"FacilityID":1507,"ADAoneway":0,"ADA":1,"ADA_New":0},"geometry":{"type":"Point","coordinates":[-73.98220899995783,40.77344000052039]}},{"type":"Feature","properties":{"FID":88,"line":"6-6 Express","name":"Hunts Point Ave","notes":"6-all times, 6 Express-weekdays AM southbound, PM northbound","objectid":89,"FacilityID":1508,"ADAoneway":0,"ADA":1,"ADA_New":0},"geometry":{"type":"Point","coordinates":[-73.89054900017344,40.82094799852307]}},{"type":"Feature","properties":{"FID":89,"line":"1-2","name":"Canal St","notes":"1-all times, 2-nights","objectid":90,"FacilityID":1509,"ADAoneway":0,"ADA":0,"ADA_New":0},"geometry":{"type":"Point","coordinates":[-74.0062770001748,40.72285399778783]}},{"type":"Feature","properties":{"FID":90,"line":"6-6 Express","name":"Middletown Rd","notes":"6 Express-weekdays AM southbound, PM northbound, 6-all other times","objectid":91,"FacilityID":1510,"ADAoneway":0,"ADA":0,"ADA_New":0},"geometry":{"type":"Point","coordinates":[-73.83632199755944,40.84386300128381]}},{"type":"Feature","properties":{"FID":91,"line":"4-6-6 Express","name":"23rd St","notes":"4 nights, 6-all times, 6 Express-weekdays AM southbound, PM northbound","objectid":92,"FacilityID":1511,"ADAoneway":0,"ADA":1,"ADA_New":0},"geometry":{"type":"Point","coordinates":[-73.98659900207888,40.739864000474604]}},{"type":"Feature","properties":{"FID":92,"line":"7-7 Express","name":"Court Sq","notes":"7-all times, 7 Express-rush hours AM westbound, PM eastbound","objectid":93,"FacilityID":1512,"ADAoneway":0,"ADA":1,"ADA_New":0},"geometry":{"type":"Point","coordinates":[-73.94526400039679,40.74702299889643]}},{"type":"Feature","properties":{"FID":93,"line":"1-2","name":"59th St - Columbus Circle","notes":"1-all times, 2-nights","objectid":94,"FacilityID":1513,"ADAoneway":0,"ADA":1,"ADA_New":0},"geometry":{"type":"Point","coordinates":[-73.98192900232715,40.76824700063689]}},{"type":"Feature","properties":{"FID":94,"line":"7-7 Express","name":"Hunters Point Ave","notes":"7-all times, 7 Express-rush hours AM westbound, PM eastbound","objectid":95,"FacilityID":1514,"ADAoneway":0,"ADA":0,"ADA_New":0},"geometry":{"type":"Point","coordinates":[-73.9489160009391,40.74221599986316]}},{"type":"Feature","properties":{"FID":95,"line":"1-2","name":"23rd St","notes":"1-all times, 2-nights","objectid":96,"FacilityID":1515,"ADAoneway":0,"ADA":0,"ADA_New":0},"geometry":{"type":"Point","coordinates":[-73.9956570016487,40.74408099989751]}},{"type":"Feature","properties":{"FID":96,"line":"1-2","name":"Houston St","notes":"1-all times, 2-nights","objectid":97,"FacilityID":1516,"ADAoneway":0,"ADA":0,"ADA_New":0},"geometry":{"type":"Point","coordinates":[-74.00536700180581,40.728251000730204]}},{"type":"Feature","properties":{"FID":97,"line":"A-S","name":"104th St","notes":"S Euclid Av to Ozone Park-Lefferts Blvd-nights, A-all other times","objectid":98,"FacilityID":1517,"ADAoneway":0,"ADA":0,"ADA_New":0},"geometry":{"type":"Point","coordinates":[-73.83768300060997,40.681711001091195]}},{"type":"Feature","properties":{"FID":98,"line":"A-S","name":"Broad Channel","notes":"A,S to Rockaway Park-all times","objectid":99,"FacilityID":1518,"ADAoneway":0,"ADA":0,"ADA_New":0},"geometry":{"type":"Point","coordinates":[-73.81583268782963,40.60840218069683]}},{"type":"Feature","properties":{"FID":99,"line":"Q","name":"Ocean Pkwy","notes":"Q-all times","objectid":100,"FacilityID":1519,"ADAoneway":0,"ADA":0,"ADA_New":0},"geometry":{"type":"Point","coordinates":[-73.96850099975177,40.57631166708091]}},{"type":"Feature","properties":{"FID":100,"line":"7-7 Express","name":"Vernon Blvd - Jackson Ave","notes":"7-all times, 7 Express-rush hours AM westbound, PM eastbound","objectid":101,"FacilityID":1520,"ADAoneway":0,"ADA":0,"ADA_New":0},"geometry":{"type":"Point","coordinates":[-73.95358099875249,40.74262599969749]}},{"type":"Feature","properties":{"FID":101,"line":"4-6-6 Express","name":"68th St - Hunter College","notes":"4 nights, 6-all times, 6 Express-weekdays AM southbound, PM northbound","objectid":102,"FacilityID":1521,"ADAoneway":0,"ADA":0,"ADA_New":0},"geometry":{"type":"Point","coordinates":[-73.96387000158042,40.76814100049679]}},{"type":"Feature","properties":{"FID":102,"line":"7-7 Express-N-W","name":"Queensboro Plz","notes":"7,N-all times, 7 Express-rush hours AM westbound, PM eastbound, W part time","objectid":103,"FacilityID":1522,"ADAoneway":0,"ADA":0,"ADA_New":0},"geometry":{"type":"Point","coordinates":[-73.9401635351909,40.750635651014804]}},{"type":"Feature","properties":{"FID":103,"line":"A-S","name":"Rockaway Blvd","notes":"A-all times, S Euclid Av to Ozone Park-Lefferts Blvd-nights","objectid":104,"FacilityID":1523,"ADAoneway":0,"ADA":0,"ADA_New":0},"geometry":{"type":"Point","coordinates":[-73.8438529979573,40.680428999588415]}},{"type":"Feature","properties":{"FID":104,"line":"4-5-6-6 Express","name":"Union Sq - 14th St","notes":"4,6-all times, 5-all times exc nights, 6 Express-weekdays AM southbound, PM northbound","objectid":105,"FacilityID":1524,"ADAoneway":0,"ADA":0,"ADA_New":0},"geometry":{"type":"Point","coordinates":[-73.98995099881881,40.734673000996125]}},{"type":"Feature","properties":{"FID":105,"line":"G","name":"Bedford - Nostrand Aves","notes":"G-all times","objectid":106,"FacilityID":1525,"ADAoneway":0,"ADA":0,"ADA_New":0},"geometry":{"type":"Point","coordinates":[-73.95352200064022,40.68962700158444]}},{"type":"Feature","properties":{"FID":106,"line":"F-G","name":"15th St - Prospect Park","notes":"F,G-all times","objectid":107,"FacilityID":1526,"ADAoneway":0,"ADA":0,"ADA_New":0},"geometry":{"type":"Point","coordinates":[-73.97973580592873,40.66003568810021]}},{"type":"Feature","properties":{"FID":107,"line":"F-G","name":"7th Ave","notes":"F,G-all times","objectid":108,"FacilityID":1527,"ADAoneway":0,"ADA":0,"ADA_New":1},"geometry":{"type":"Point","coordinates":[-73.98025117900944,40.66624469001985]}},{"type":"Feature","properties":{"FID":108,"line":"F-G","name":"Ft Hamilton Pkwy","notes":"F,G-all times","objectid":109,"FacilityID":1528,"ADAoneway":0,"ADA":0,"ADA_New":0},"geometry":{"type":"Point","coordinates":[-73.97577599917474,40.65078166803418]}},{"type":"Feature","properties":{"FID":109,"line":"F-G","name":"Church Ave","notes":"F,G-all times","objectid":110,"FacilityID":1529,"ADAoneway":0,"ADA":1,"ADA_New":0},"geometry":{"type":"Point","coordinates":[-73.97972116229084,40.64427200012998]}},{"type":"Feature","properties":{"FID":110,"line":"Q","name":"Beverly Rd","notes":"Q-all times","objectid":111,"FacilityID":1530,"ADAoneway":0,"ADA":0,"ADA_New":0},"geometry":{"type":"Point","coordinates":[-73.96435779623125,40.64390459860419]}},{"type":"Feature","properties":{"FID":111,"line":"B-Q","name":"Church Ave","notes":"B-weekdays and evenings, Q-all times","objectid":112,"FacilityID":1531,"ADAoneway":0,"ADA":0,"ADA_New":1},"geometry":{"type":"Point","coordinates":[-73.96288246192114,40.65049324646484]}},{"type":"Feature","properties":{"FID":112,"line":"B-Q","name":"Newkirk Ave","notes":"B-weekdays and evenings, Q-all times","objectid":113,"FacilityID":1532,"ADAoneway":0,"ADA":0,"ADA_New":0},"geometry":{"type":"Point","coordinates":[-73.96269486837261,40.63514193733789]}},{"type":"Feature","properties":{"FID":113,"line":"Q","name":"Parkside Ave","notes":"Q-all times","objectid":114,"FacilityID":1533,"ADAoneway":0,"ADA":0,"ADA_New":0},"geometry":{"type":"Point","coordinates":[-73.96145343987648,40.65507304163716]}},{"type":"Feature","properties":{"FID":114,"line":"2-3-4","name":"Grand Army Plaza","notes":"4-nights, 3-all other times, 2-all times","objectid":115,"FacilityID":1534,"ADAoneway":0,"ADA":0,"ADA_New":0},"geometry":{"type":"Point","coordinates":[-73.9709563319228,40.6752946951032]}},{"type":"Feature","properties":{"FID":115,"line":"2-3-4-5","name":"Atlantic Av - Barclay's Center","notes":"2,4-all times, 3-all times exc nights, 5-weekdays","objectid":116,"FacilityID":1535,"ADAoneway":0,"ADA":1,"ADA_New":0},"geometry":{"type":"Point","coordinates":[-73.97754993539385,40.68442016526762]}},{"type":"Feature","properties":{"FID":116,"line":"A-C","name":"Rockaway Ave","notes":"A-nights, C-all other times","objectid":117,"FacilityID":1536,"ADAoneway":0,"ADA":0,"ADA_New":1},"geometry":{"type":"Point","coordinates":[-73.91194599726617,40.678339999883505]}},{"type":"Feature","properties":{"FID":117,"line":"G","name":"Fulton St","notes":"G-all times","objectid":118,"FacilityID":1537,"ADAoneway":0,"ADA":0,"ADA_New":0},"geometry":{"type":"Point","coordinates":[-73.97537499833149,40.68711899950771]}},{"type":"Feature","properties":{"FID":118,"line":"G","name":"Clinton - Washington Aves","notes":"G-all times","objectid":119,"FacilityID":1538,"ADAoneway":0,"ADA":0,"ADA_New":0},"geometry":{"type":"Point","coordinates":[-73.9667959986695,40.68809400106055]}},{"type":"Feature","properties":{"FID":119,"line":"B-Q","name":"7th Ave","notes":"B-weekdays and evenings, Q-all times","objectid":120,"FacilityID":1539,"ADAoneway":0,"ADA":0,"ADA_New":0},"geometry":{"type":"Point","coordinates":[-73.97285279191024,40.67710217983294]}},{"type":"Feature","properties":{"FID":120,"line":"B-Q","name":"Atlantic Av - Barclay's Center","notes":"B-weekdays and evenings, Q-all times","objectid":121,"FacilityID":1540,"ADAoneway":0,"ADA":1,"ADA_New":0},"geometry":{"type":"Point","coordinates":[-73.97678343963167,40.684488323453685]}},{"type":"Feature","properties":{"FID":121,"line":"D-N-Q-R","name":"Atlantic Av - Barclay's Center","notes":"D,N-all times, R-all times exc nights","objectid":122,"FacilityID":1541,"ADAoneway":0,"ADA":1,"ADA_New":0},"geometry":{"type":"Point","coordinates":[-73.97880999956767,40.683665667279435]}},{"type":"Feature","properties":{"FID":122,"line":"4-5","name":"Borough Hall","notes":"4-all times, 5-weekdays","objectid":123,"FacilityID":1542,"ADAoneway":1,"ADA":0,"ADA_New":1},"geometry":{"type":"Point","coordinates":[-73.99015100090539,40.692403999991036]}},{"type":"Feature","properties":{"FID":123,"line":"A","name":"Aqueduct Racetrack","notes":"A-to Manhattan only, racing days only","objectid":124,"FacilityID":1543,"ADAoneway":0,"ADA":0,"ADA_New":0},"geometry":{"type":"Point","coordinates":[-73.83591899965162,40.672096999172844]}},{"type":"Feature","properties":{"FID":124,"line":"5","name":"Morris Park","notes":"5-all times","objectid":125,"FacilityID":1544,"ADAoneway":0,"ADA":0,"ADA_New":0},"geometry":{"type":"Point","coordinates":[-73.86049500117254,40.85436399966426]}},{"type":"Feature","properties":{"FID":125,"line":"5","name":"Pelham Pkwy","notes":"5-all times","objectid":126,"FacilityID":1545,"ADAoneway":0,"ADA":1,"ADA_New":0},"geometry":{"type":"Point","coordinates":[-73.85535900043564,40.858984999820116]}},{"type":"Feature","properties":{"FID":126,"line":"A-C","name":"Nostrand Ave","notes":"A-all times, C-all times exc nights","objectid":127,"FacilityID":1546,"ADAoneway":0,"ADA":0,"ADA_New":1},"geometry":{"type":"Point","coordinates":[-73.95042600099683,40.68043800006226]}},{"type":"Feature","properties":{"FID":127,"line":"2-3-4-5","name":"Nevins St","notes":"2,4-all times, 3-all times exc nights, 5-weekdays","objectid":128,"FacilityID":1547,"ADAoneway":0,"ADA":0,"ADA_New":0},"geometry":{"type":"Point","coordinates":[-73.98040679874578,40.68831058019022]}},{"type":"Feature","properties":{"FID":128,"line":"2-3-4","name":"Eastern Pkwy - Bklyn Museum","notes":"4-nights, 3-all other times, 2-all times","objectid":129,"FacilityID":1548,"ADAoneway":0,"ADA":0,"ADA_New":0},"geometry":{"type":"Point","coordinates":[-73.96422203748425,40.67203223545925]}},{"type":"Feature","properties":{"FID":129,"line":"2-5","name":"Beverly Rd","notes":"2-all times, 5-weekdays","objectid":130,"FacilityID":1549,"ADAoneway":0,"ADA":0,"ADA_New":0},"geometry":{"type":"Point","coordinates":[-73.94884798381702,40.64512351894373]}},{"type":"Feature","properties":{"FID":130,"line":"2-5","name":"Church Ave","notes":"2-all times, 5-weekdays","objectid":131,"FacilityID":1550,"ADAoneway":0,"ADA":1,"ADA_New":0},"geometry":{"type":"Point","coordinates":[-73.94945514035334,40.6508606878022]}},{"type":"Feature","properties":{"FID":131,"line":"2-5","name":"Newkirk Ave","notes":"2-all times, 5-weekdays","objectid":132,"FacilityID":1551,"ADAoneway":0,"ADA":0,"ADA_New":0},"geometry":{"type":"Point","coordinates":[-73.94829990822407,40.63999124275311]}},{"type":"Feature","properties":{"FID":132,"line":"2-5","name":"Brooklyn College - Flatbush Ave","notes":"2-all times, 5-weekdays","objectid":133,"FacilityID":1552,"ADAoneway":0,"ADA":1,"ADA_New":0},"geometry":{"type":"Point","coordinates":[-73.94754120734406,40.63284240700742]}},{"type":"Feature","properties":{"FID":133,"line":"2-5","name":"Sterling St","notes":"2-all times, 5-weekdays","objectid":134,"FacilityID":1553,"ADAoneway":0,"ADA":0,"ADA_New":0},"geometry":{"type":"Point","coordinates":[-73.95072891124937,40.6627729934283]}},{"type":"Feature","properties":{"FID":134,"line":"3-4","name":"Crown Hts - Utica Ave","notes":"3-all times exc nights, 4-all times","objectid":135,"FacilityID":1554,"ADAoneway":0,"ADA":1,"ADA_New":0},"geometry":{"type":"Point","coordinates":[-73.93293256081851,40.66897831107809]}},{"type":"Feature","properties":{"FID":135,"line":"3-4","name":"Kingston Ave","notes":"4-nights, 3-all other times","objectid":136,"FacilityID":1555,"ADAoneway":0,"ADA":0,"ADA_New":0},"geometry":{"type":"Point","coordinates":[-73.94215978392963,40.66948144864978]}},{"type":"Feature","properties":{"FID":136,"line":"G","name":"Nassau Ave","notes":"G-all times","objectid":137,"FacilityID":1556,"ADAoneway":0,"ADA":0,"ADA_New":0},"geometry":{"type":"Point","coordinates":[-73.95118300016523,40.724479997808274]}},{"type":"Feature","properties":{"FID":137,"line":"G","name":"Greenpoint Ave","notes":"G-all times","objectid":138,"FacilityID":1557,"ADAoneway":0,"ADA":0,"ADA_New":0},"geometry":{"type":"Point","coordinates":[-73.95442500146235,40.73126699971465]}},{"type":"Feature","properties":{"FID":138,"line":"J-M-Z","name":"Marcy Ave","notes":"J-all times, M-all times exc nights, Z-rush hours AM westbound, PM eastbound","objectid":139,"FacilityID":1558,"ADAoneway":0,"ADA":1,"ADA_New":0},"geometry":{"type":"Point","coordinates":[-73.95783200075729,40.708383000017925]}},{"type":"Feature","properties":{"FID":139,"line":"J-M","name":"Hewes St","notes":"J-all times, skips weekdays AM westbound, PM eastbound, M-all times exc nights","objectid":140,"FacilityID":1559,"ADAoneway":0,"ADA":0,"ADA_New":0},"geometry":{"type":"Point","coordinates":[-73.95348800038457,40.706889998054]}},{"type":"Feature","properties":{"FID":140,"line":"4-5","name":"138th St - Grand Concourse","notes":"4-all times, skips rush hours AM southbound, PM northbound, 5-all times exc nights","objectid":141,"FacilityID":1560,"ADAoneway":0,"ADA":0,"ADA_New":0},"geometry":{"type":"Point","coordinates":[-73.92984899935611,40.81322399958908]}},{"type":"Feature","properties":{"FID":141,"line":"E-M","name":"5th Ave - 53rd St","notes":"E-all times, M-weekdays and evenings","objectid":142,"FacilityID":1561,"ADAoneway":0,"ADA":0,"ADA_New":0},"geometry":{"type":"Point","coordinates":[-73.9752485052734,40.76008683231326]}},{"type":"Feature","properties":{"FID":142,"line":"E-M","name":"Lexington Ave - 53rd St","notes":"E-all times, M-weekdays and evenings","objectid":143,"FacilityID":1562,"ADAoneway":0,"ADA":1,"ADA_New":0},"geometry":{"type":"Point","coordinates":[-73.96907237490204,40.75746830782865]}},{"type":"Feature","properties":{"FID":143,"line":"N-Q-R-W","name":"28th St","notes":"N-all times, R-all times exc nights, part time","objectid":144,"FacilityID":1563,"ADAoneway":0,"ADA":0,"ADA_New":0},"geometry":{"type":"Point","coordinates":[-73.98869800128737,40.74545399979951]}},{"type":"Feature","properties":{"FID":144,"line":"N-Q-R-W","name":"Herald Sq - 34th St","notes":"N,Q-all times, R-all times exc nights","objectid":145,"FacilityID":1564,"ADAoneway":0,"ADA":1,"ADA_New":0},"geometry":{"type":"Point","coordinates":[-73.9879368338264,40.74964456009442]}},{"type":"Feature","properties":{"FID":145,"line":"L","name":"1st Ave","notes":"L-all times","objectid":146,"FacilityID":1565,"ADAoneway":0,"ADA":0,"ADA_New":0},"geometry":{"type":"Point","coordinates":[-73.98168087489128,40.73097497580066]}},{"type":"Feature","properties":{"FID":146,"line":"S","name":"Times Sq - 42nd St","notes":"S to Grand Central-all times exc nights, closed nights-use 7","objectid":147,"FacilityID":1566,"ADAoneway":0,"ADA":0,"ADA_New":0},"geometry":{"type":"Point","coordinates":[-73.98622899953202,40.755983000570076]}},{"type":"Feature","properties":{"FID":147,"line":"G","name":"Metropolitan Ave","notes":"G-all times","objectid":148,"FacilityID":1567,"ADAoneway":0,"ADA":0,"ADA_New":1},"geometry":{"type":"Point","coordinates":[-73.9514239994525,40.71277400073426]}},{"type":"Feature","properties":{"FID":148,"line":"L","name":"Grand St","notes":"L-all times","objectid":149,"FacilityID":1568,"ADAoneway":0,"ADA":0,"ADA_New":1},"geometry":{"type":"Point","coordinates":[-73.94049699874644,40.71157600064823]}},{"type":"Feature","properties":{"FID":149,"line":"L","name":"Graham Ave","notes":"L-all times","objectid":150,"FacilityID":1569,"ADAoneway":0,"ADA":0,"ADA_New":0},"geometry":{"type":"Point","coordinates":[-73.94394399869037,40.714575998363635]}},{"type":"Feature","properties":{"FID":150,"line":"L","name":"Bedford Ave","notes":"L-all times","objectid":151,"FacilityID":1570,"ADAoneway":0,"ADA":0,"ADA_New":0},"geometry":{"type":"Point","coordinates":[-73.95666499806525,40.71717399858899]}},{"type":"Feature","properties":{"FID":151,"line":"L","name":"Montrose Ave","notes":"L-all times","objectid":152,"FacilityID":1571,"ADAoneway":0,"ADA":0,"ADA_New":0},"geometry":{"type":"Point","coordinates":[-73.93979284713505,40.70739106438455]}},{"type":"Feature","properties":{"FID":152,"line":"G","name":"Long Island City - Court Sq","notes":"G-all times","objectid":153,"FacilityID":1572,"ADAoneway":0,"ADA":0,"ADA_New":0},"geometry":{"type":"Point","coordinates":[-73.94381559597835,40.74630503357145]}},{"type":"Feature","properties":{"FID":153,"line":"G","name":"21st St","notes":"G-all times","objectid":154,"FacilityID":1573,"ADAoneway":0,"ADA":0,"ADA_New":0},"geometry":{"type":"Point","coordinates":[-73.9495999997552,40.7441286664954]}},{"type":"Feature","properties":{"FID":154,"line":"N-W","name":"39th Ave","notes":"N-all times, W part time","objectid":155,"FacilityID":1574,"ADAoneway":0,"ADA":0,"ADA_New":0},"geometry":{"type":"Point","coordinates":[-73.93285137679598,40.75276306140845]}},{"type":"Feature","properties":{"FID":155,"line":"1","name":"145th St","notes":"1-all times","objectid":156,"FacilityID":1575,"ADAoneway":0,"ADA":0,"ADA_New":0},"geometry":{"type":"Point","coordinates":[-73.95035999879713,40.82655099962194]}},{"type":"Feature","properties":{"FID":156,"line":"1","name":"157th St","notes":"1-all times","objectid":157,"FacilityID":1576,"ADAoneway":0,"ADA":0,"ADA_New":0},"geometry":{"type":"Point","coordinates":[-73.94488999901047,40.8340410001399]}},{"type":"Feature","properties":{"FID":157,"line":"1-2-3","name":"96th St","notes":"1,2,3-all times","objectid":158,"FacilityID":1577,"ADAoneway":0,"ADA":1,"ADA_New":0},"geometry":{"type":"Point","coordinates":[-73.97232299915696,40.79391900121471]}},{"type":"Feature","properties":{"FID":158,"line":"1","name":"103rd St","notes":"1-all times","objectid":159,"FacilityID":1578,"ADAoneway":0,"ADA":0,"ADA_New":0},"geometry":{"type":"Point","coordinates":[-73.96837899960818,40.799446000334825]}},{"type":"Feature","properties":{"FID":159,"line":"2-3","name":"Central Park North (110th St)","notes":"2,3-all times","objectid":160,"FacilityID":1579,"ADAoneway":0,"ADA":0,"ADA_New":0},"geometry":{"type":"Point","coordinates":[-73.95182200176913,40.79907499977324]}},{"type":"Feature","properties":{"FID":160,"line":"A-B-C","name":"103rd St","notes":"A-nights, B-weekdays and evenings, C-all times exc nights","objectid":161,"FacilityID":1580,"ADAoneway":0,"ADA":0,"ADA_New":0},"geometry":{"type":"Point","coordinates":[-73.96137008267617,40.796060739904526]}},{"type":"Feature","properties":{"FID":161,"line":"1-2-3","name":"72nd St","notes":"1,2,3-all times","objectid":162,"FacilityID":1581,"ADAoneway":0,"ADA":1,"ADA_New":0},"geometry":{"type":"Point","coordinates":[-73.98197000159583,40.77845300068614]}},{"type":"Feature","properties":{"FID":162,"line":"A-B-C","name":"81st St","notes":"A-nights, B-weekdays and evenings, C-all times exc nights","objectid":163,"FacilityID":1582,"ADAoneway":0,"ADA":0,"ADA_New":1},"geometry":{"type":"Point","coordinates":[-73.97209794937208,40.78134608418206]}},{"type":"Feature","properties":{"FID":163,"line":"E-F","name":"75th Ave","notes":"E-evenings, weekends, nights, F-all times","objectid":164,"FacilityID":1583,"ADAoneway":0,"ADA":0,"ADA_New":0},"geometry":{"type":"Point","coordinates":[-73.83692369387158,40.71804465348743]}},{"type":"Feature","properties":{"FID":164,"line":"A-B-C","name":"86th St","notes":"A-nights, B-weekdays and evenings, C-all times exc nights","objectid":165,"FacilityID":1584,"ADAoneway":0,"ADA":0,"ADA_New":0},"geometry":{"type":"Point","coordinates":[-73.96882849429672,40.78582304678557]}},{"type":"Feature","properties":{"FID":165,"line":"1","name":"Cathedral Pkwy (110th St)","notes":"1-all times","objectid":166,"FacilityID":1585,"ADAoneway":0,"ADA":0,"ADA_New":0},"geometry":{"type":"Point","coordinates":[-73.9668470005456,40.80396699961484]}},{"type":"Feature","properties":{"FID":166,"line":"1","name":"116th St - Columbia University","notes":"1-all times","objectid":167,"FacilityID":1586,"ADAoneway":0,"ADA":0,"ADA_New":0},"geometry":{"type":"Point","coordinates":[-73.96410999757751,40.807722001230864]}},{"type":"Feature","properties":{"FID":167,"line":"2-3","name":"125th St","notes":"2,3-all times","objectid":168,"FacilityID":1587,"ADAoneway":0,"ADA":0,"ADA_New":0},"geometry":{"type":"Point","coordinates":[-73.94549500011411,40.807753999182815]}},{"type":"Feature","properties":{"FID":168,"line":"2-3","name":"135th St","notes":"2,3-all times","objectid":169,"FacilityID":1588,"ADAoneway":0,"ADA":1,"ADA_New":0},"geometry":{"type":"Point","coordinates":[-73.94077000106708,40.8142290003391]}},{"type":"Feature","properties":{"FID":169,"line":"2-3","name":"116th St","notes":"2,3-all times","objectid":170,"FacilityID":1589,"ADAoneway":0,"ADA":0,"ADA_New":0},"geometry":{"type":"Point","coordinates":[-73.94962500096905,40.802097999133004]}},{"type":"Feature","properties":{"FID":170,"line":"B-D","name":"Tremont Ave","notes":"B-rush hours, D-all times","objectid":171,"FacilityID":1590,"ADAoneway":0,"ADA":0,"ADA_New":1},"geometry":{"type":"Point","coordinates":[-73.90522700122354,40.850409999510234]}},{"type":"Feature","properties":{"FID":171,"line":"1","name":"137th St - City College","notes":"1-all times","objectid":172,"FacilityID":1591,"ADAoneway":0,"ADA":0,"ADA_New":1},"geometry":{"type":"Point","coordinates":[-73.95367600087873,40.82200799968475]}},{"type":"Feature","properties":{"FID":172,"line":"3","name":"145th St","notes":"3-all times, exit only northbound","objectid":173,"FacilityID":1592,"ADAoneway":0,"ADA":0,"ADA_New":0},"geometry":{"type":"Point","coordinates":[-73.93624499873299,40.82042099969279]}},{"type":"Feature","properties":{"FID":173,"line":"4","name":"176th St","notes":"4-all times","objectid":174,"FacilityID":1593,"ADAoneway":0,"ADA":0,"ADA_New":0},"geometry":{"type":"Point","coordinates":[-73.91179399884471,40.8484800012369]}},{"type":"Feature","properties":{"FID":174,"line":"4","name":"Burnside Ave","notes":"4-all times","objectid":175,"FacilityID":1594,"ADAoneway":0,"ADA":0,"ADA_New":1},"geometry":{"type":"Point","coordinates":[-73.9076840015997,40.85345300155693]}},{"type":"Feature","properties":{"FID":175,"line":"B-D","name":"170th St","notes":"B-rush hours, D-all times, skips rush hours AM southbound, PM northbound","objectid":176,"FacilityID":1595,"ADAoneway":0,"ADA":0,"ADA_New":0},"geometry":{"type":"Point","coordinates":[-73.91339999846983,40.83930599964156]}},{"type":"Feature","properties":{"FID":176,"line":"1","name":"168th St","notes":"1-all times","objectid":177,"FacilityID":1596,"ADAoneway":0,"ADA":0,"ADA_New":1},"geometry":{"type":"Point","coordinates":[-73.94013299907257,40.840555999148535]}},{"type":"Feature","properties":{"FID":177,"line":"1","name":"181st St","notes":"1-all times","objectid":178,"FacilityID":1597,"ADAoneway":0,"ADA":0,"ADA_New":0},"geometry":{"type":"Point","coordinates":[-73.9335959996056,40.84950499974065]}},{"type":"Feature","properties":{"FID":178,"line":"1","name":"191st St","notes":"1-all times","objectid":179,"FacilityID":1598,"ADAoneway":0,"ADA":0,"ADA_New":0},"geometry":{"type":"Point","coordinates":[-73.92941199742039,40.85522500175836]}},{"type":"Feature","properties":{"FID":179,"line":"A","name":"175th St","notes":"A-all times","objectid":180,"FacilityID":1599,"ADAoneway":0,"ADA":1,"ADA_New":0},"geometry":{"type":"Point","coordinates":[-73.93970399761596,40.84739100072403]}},{"type":"Feature","properties":{"FID":180,"line":"A","name":"Beach 44th St","notes":"A-all times","objectid":181,"FacilityID":1600,"ADAoneway":0,"ADA":0,"ADA_New":0},"geometry":{"type":"Point","coordinates":[-73.77601299999507,40.59294299908617]}},{"type":"Feature","properties":{"FID":181,"line":"A","name":"Beach 60th St","notes":"A-all times","objectid":182,"FacilityID":1601,"ADAoneway":0,"ADA":0,"ADA_New":0},"geometry":{"type":"Point","coordinates":[-73.7885219980118,40.59237400121235]}},{"type":"Feature","properties":{"FID":182,"line":"A-S","name":"Beach 98th St","notes":"A-rush hours AM northbound, PM southbound, S Broad Channel to Rockaway Park-all times","objectid":183,"FacilityID":1602,"ADAoneway":0,"ADA":0,"ADA_New":0},"geometry":{"type":"Point","coordinates":[-73.82052058959523,40.58538569133279]}},{"type":"Feature","properties":{"FID":183,"line":"A-S","name":"Rockaway Park - Beach 116 St","notes":"A-rush hours AM northbound, PM southbound, S to Broad Channel-all times","objectid":184,"FacilityID":1603,"ADAoneway":0,"ADA":1,"ADA_New":0},"geometry":{"type":"Point","coordinates":[-73.83559008701239,40.580955865573515]}},{"type":"Feature","properties":{"FID":184,"line":"A","name":"Beach 36th St","notes":"A-all times","objectid":185,"FacilityID":1604,"ADAoneway":0,"ADA":0,"ADA_New":0},"geometry":{"type":"Point","coordinates":[-73.76817499939688,40.59539800166876]}},{"type":"Feature","properties":{"FID":185,"line":"A","name":"Beach 25th St","notes":"A-all times","objectid":186,"FacilityID":1605,"ADAoneway":0,"ADA":0,"ADA_New":0},"geometry":{"type":"Point","coordinates":[-73.76135299762073,40.60006600105881]}},{"type":"Feature","properties":{"FID":186,"line":"F","name":"Parsons Blvd","notes":"F-all times","objectid":187,"FacilityID":1606,"ADAoneway":0,"ADA":0,"ADA_New":1},"geometry":{"type":"Point","coordinates":[-73.80328900021885,40.707571999615695]}},{"type":"Feature","properties":{"FID":187,"line":"F","name":"169th St","notes":"F-all times","objectid":188,"FacilityID":1607,"ADAoneway":0,"ADA":0,"ADA_New":0},"geometry":{"type":"Point","coordinates":[-73.79347419927721,40.710517502784]}},{"type":"Feature","properties":{"FID":188,"line":"7","name":"103rd St - Corona Plaza","notes":"7-all times","objectid":189,"FacilityID":1608,"ADAoneway":0,"ADA":0,"ADA_New":0},"geometry":{"type":"Point","coordinates":[-73.86269999830412,40.749865000555545]}},{"type":"Feature","properties":{"FID":189,"line":"7","name":"111th St","notes":"7-all times","objectid":190,"FacilityID":1609,"ADAoneway":0,"ADA":0,"ADA_New":0},"geometry":{"type":"Point","coordinates":[-73.85533399834884,40.75172999941711]}},{"type":"Feature","properties":{"FID":190,"line":"E-M-R","name":"63rd Dr - Rego Park","notes":"E-nights, R-all other times, M-weekdays and evenings","objectid":191,"FacilityID":1610,"ADAoneway":0,"ADA":0,"ADA_New":0},"geometry":{"type":"Point","coordinates":[-73.86161820097203,40.729763972422425]}},{"type":"Feature","properties":{"FID":191,"line":"A-S","name":"Grant Ave","notes":"A-all times, S Euclid Av to Ozone Park-Lefferts Blvd-nights","objectid":192,"FacilityID":1611,"ADAoneway":0,"ADA":0,"ADA_New":0},"geometry":{"type":"Point","coordinates":[-73.86504999877702,40.67704400054478]}},{"type":"Feature","properties":{"FID":192,"line":"1-2","name":"79th St","notes":"1-all times, 2-nights","objectid":193,"FacilityID":1612,"ADAoneway":0,"ADA":0,"ADA_New":0},"geometry":{"type":"Point","coordinates":[-73.97991700056134,40.78393399959032]}},{"type":"Feature","properties":{"FID":193,"line":"L","name":"Atlantic Ave","notes":"L-all times","objectid":194,"FacilityID":1613,"ADAoneway":0,"ADA":0,"ADA_New":0},"geometry":{"type":"Point","coordinates":[-73.9030969995401,40.67534466640805]}},{"type":"Feature","properties":{"FID":194,"line":"1-2","name":"Christopher St - Sheridan Sq","notes":"1-all times, 2-nights","objectid":195,"FacilityID":1614,"ADAoneway":0,"ADA":0,"ADA_New":0},"geometry":{"type":"Point","coordinates":[-74.00290599855235,40.73342200104225]}},{"type":"Feature","properties":{"FID":195,"line":"A-S","name":"Ozone Park - Lefferts Blvd","notes":"S to Euclid Av-nights, A-all other times","objectid":196,"FacilityID":1615,"ADAoneway":0,"ADA":1,"ADA_New":0},"geometry":{"type":"Point","coordinates":[-73.82579799906613,40.68595099878361]}},{"type":"Feature","properties":{"FID":196,"line":"7-7 Express","name":"Times Sq - 42nd St","notes":"7-all times, 7 Express-rush hours AM westbound, PM eastbound","objectid":197,"FacilityID":1616,"ADAoneway":0,"ADA":1,"ADA_New":0},"geometry":{"type":"Point","coordinates":[-73.98769099825152,40.755477001982506]}},{"type":"Feature","properties":{"FID":197,"line":"F-Q","name":"W 8th St - NY Aquarium","notes":"F,Q-all times","objectid":198,"FacilityID":1617,"ADAoneway":0,"ADA":0,"ADA_New":0},"geometry":{"type":"Point","coordinates":[-73.97595787413822,40.576033818103646]}},{"type":"Feature","properties":{"FID":198,"line":"1-2","name":"28th St","notes":"1-all times, 2-nights","objectid":199,"FacilityID":1618,"ADAoneway":0,"ADA":0,"ADA_New":0},"geometry":{"type":"Point","coordinates":[-73.99336500134324,40.74721499918219]}},{"type":"Feature","properties":{"FID":199,"line":"4-6-6 Express","name":"28th St","notes":"4 nights, 6-all times, 6 Express-weekdays AM southbound, PM northbound","objectid":200,"FacilityID":1619,"ADAoneway":1,"ADA":0,"ADA_New":0},"geometry":{"type":"Point","coordinates":[-73.98426400110407,40.743069999259035]}},{"type":"Feature","properties":{"FID":200,"line":"6-6 Express","name":"Pelham Bay Park","notes":"6 Express-weekdays AM southbound, PM northbound, 6-all other times","objectid":201,"FacilityID":1620,"ADAoneway":0,"ADA":0,"ADA_New":0},"geometry":{"type":"Point","coordinates":[-73.82812100059289,40.85246199951662]}},{"type":"Feature","properties":{"FID":201,"line":"6-6 Express","name":"Westchester Sq - E Tremont Ave","notes":"6 Express-weekdays AM southbound, PM northbound, 6-all other times","objectid":202,"FacilityID":1621,"ADAoneway":0,"ADA":0,"ADA_New":0},"geometry":{"type":"Point","coordinates":[-73.84295199925012,40.839892001013915]}},{"type":"Feature","properties":{"FID":202,"line":"1-2","name":"18th St","notes":"1-all times, 2-nights","objectid":203,"FacilityID":1622,"ADAoneway":0,"ADA":0,"ADA_New":0},"geometry":{"type":"Point","coordinates":[-73.99787100060406,40.741039999802105]}},{"type":"Feature","properties":{"FID":203,"line":"7-7 Express","name":"Grand Central - 42nd St","notes":"7-all times, 7 Express-rush hours AM westbound, PM eastbound","objectid":204,"FacilityID":1623,"ADAoneway":0,"ADA":1,"ADA_New":0},"geometry":{"type":"Point","coordinates":[-73.97604100111508,40.751431000286864]}},{"type":"Feature","properties":{"FID":204,"line":"A","name":"Beach 67th St","notes":"A-all times","objectid":205,"FacilityID":1624,"ADAoneway":0,"ADA":0,"ADA_New":1},"geometry":{"type":"Point","coordinates":[-73.7969239998421,40.59092700078133]}},{"type":"Feature","properties":{"FID":205,"line":"A-C-E","name":"W 4th St - Washington Sq (Upper)","notes":"A,E-all times, C-all times exc nights","objectid":206,"FacilityID":1625,"ADAoneway":0,"ADA":1,"ADA_New":0},"geometry":{"type":"Point","coordinates":[-74.00049500225435,40.73233799774325]}},{"type":"Feature","properties":{"FID":206,"line":"J","name":"85th St - Forest Pky","notes":"J-all times","objectid":207,"FacilityID":1626,"ADAoneway":0,"ADA":0,"ADA_New":0},"geometry":{"type":"Point","coordinates":[-73.86008700006875,40.69242699966103]}},{"type":"Feature","properties":{"FID":207,"line":"J-Z","name":"Woodhaven Blvd","notes":"J-all times, Z-rush hours AM westbound, PM eastbound","objectid":208,"FacilityID":1627,"ADAoneway":0,"ADA":0,"ADA_New":0},"geometry":{"type":"Point","coordinates":[-73.85205199740794,40.69370399880105]}},{"type":"Feature","properties":{"FID":208,"line":"J","name":"111th St","notes":"J-all times","objectid":209,"FacilityID":1628,"ADAoneway":0,"ADA":0,"ADA_New":0},"geometry":{"type":"Point","coordinates":[-73.83679338454697,40.697114810696476]}},{"type":"Feature","properties":{"FID":209,"line":"J-Z","name":"121st St","notes":"Z-rush hours AM westbound, PM eastbound, J-all other times","objectid":210,"FacilityID":1629,"ADAoneway":0,"ADA":0,"ADA_New":0},"geometry":{"type":"Point","coordinates":[-73.82834900017954,40.700481998515315]}},{"type":"Feature","properties":{"FID":210,"line":"L","name":"Halsey St","notes":"L-all times","objectid":211,"FacilityID":1630,"ADAoneway":0,"ADA":0,"ADA_New":0},"geometry":{"type":"Point","coordinates":[-73.90393400118631,40.69551800114878]}},{"type":"Feature","properties":{"FID":211,"line":"L","name":"Myrtle - Wyckoff Aves","notes":"L-all times","objectid":212,"FacilityID":1631,"ADAoneway":0,"ADA":1,"ADA_New":0},"geometry":{"type":"Point","coordinates":[-73.9109757182647,40.699471062427136]}},{"type":"Feature","properties":{"FID":212,"line":"3-4","name":"New Lots Ave","notes":"4-nights, 3-all other times","objectid":213,"FacilityID":1632,"ADAoneway":0,"ADA":0,"ADA_New":1},"geometry":{"type":"Point","coordinates":[-73.88411070800329,40.6663149325969]}},{"type":"Feature","properties":{"FID":213,"line":"A-C","name":"Van Siclen Ave","notes":"A-nights, C-all other times","objectid":214,"FacilityID":1633,"ADAoneway":0,"ADA":0,"ADA_New":0},"geometry":{"type":"Point","coordinates":[-73.8903580002471,40.67270999906104]}},{"type":"Feature","properties":{"FID":214,"line":"J","name":"Cleveland St","notes":"J-all times","objectid":215,"FacilityID":1634,"ADAoneway":0,"ADA":0,"ADA_New":0},"geometry":{"type":"Point","coordinates":[-73.8851940021643,40.679777998961164]}},{"type":"Feature","properties":{"FID":215,"line":"L","name":"Livonia Ave","notes":"L-all times","objectid":216,"FacilityID":1635,"ADAoneway":0,"ADA":0,"ADA_New":0},"geometry":{"type":"Point","coordinates":[-73.90056237226057,40.66405727094644]}},{"type":"Feature","properties":{"FID":216,"line":"3-4","name":"Junius St","notes":"4-nights, 3-all other times","objectid":217,"FacilityID":1636,"ADAoneway":0,"ADA":0,"ADA_New":1},"geometry":{"type":"Point","coordinates":[-73.90244864183562,40.66358900181724]}},{"type":"Feature","properties":{"FID":217,"line":"3-4","name":"Rockaway Ave","notes":"4-nights, 3-all other times","objectid":218,"FacilityID":1637,"ADAoneway":0,"ADA":0,"ADA_New":0},"geometry":{"type":"Point","coordinates":[-73.90895833584449,40.66261748815223]}},{"type":"Feature","properties":{"FID":218,"line":"L","name":"Canarsie - Rockaway Pkwy","notes":"L-all times","objectid":219,"FacilityID":1638,"ADAoneway":0,"ADA":1,"ADA_New":0},"geometry":{"type":"Point","coordinates":[-73.90185000017287,40.64665366739528]}},{"type":"Feature","properties":{"FID":219,"line":"L","name":"E 105th St","notes":"L-all times","objectid":220,"FacilityID":1639,"ADAoneway":0,"ADA":0,"ADA_New":0},"geometry":{"type":"Point","coordinates":[-73.89954769388724,40.65046878544699]}},{"type":"Feature","properties":{"FID":220,"line":"3-4","name":"Saratoga Ave","notes":"4-nights, 3-all other times","objectid":221,"FacilityID":1640,"ADAoneway":0,"ADA":0,"ADA_New":0},"geometry":{"type":"Point","coordinates":[-73.91633025007947,40.6615297898075]}},{"type":"Feature","properties":{"FID":221,"line":"3-4","name":"Sutter Ave - Rutland Road","notes":"4-nights, 3-all other times","objectid":222,"FacilityID":1641,"ADAoneway":0,"ADA":0,"ADA_New":0},"geometry":{"type":"Point","coordinates":[-73.92252118536001,40.66476678877493]}},{"type":"Feature","properties":{"FID":222,"line":"L","name":"New Lots Ave","notes":"L-all times","objectid":223,"FacilityID":1642,"ADAoneway":0,"ADA":0,"ADA_New":0},"geometry":{"type":"Point","coordinates":[-73.89927796057142,40.65891477368527]}},{"type":"Feature","properties":{"FID":223,"line":"J-Z","name":"Broadway Junction","notes":"J-all times, Z-rush hours AM westbound, PM eastbound","objectid":224,"FacilityID":1643,"ADAoneway":0,"ADA":0,"ADA_New":1},"geometry":{"type":"Point","coordinates":[-73.90428999746412,40.67936600147369]}},{"type":"Feature","properties":{"FID":224,"line":"J","name":"Alabama Ave","notes":"J-all times","objectid":225,"FacilityID":1644,"ADAoneway":0,"ADA":0,"ADA_New":0},"geometry":{"type":"Point","coordinates":[-73.89852600159652,40.676998000003756]}},{"type":"Feature","properties":{"FID":225,"line":"A-C","name":"Shepherd Ave","notes":"A-nights, C-all other times","objectid":226,"FacilityID":1645,"ADAoneway":0,"ADA":0,"ADA_New":0},"geometry":{"type":"Point","coordinates":[-73.88074999747269,40.6741300014559]}},{"type":"Feature","properties":{"FID":226,"line":"J-Z","name":"Crescent St","notes":"J-all times, Z-rush hours AM westbound, PM eastbound","objectid":227,"FacilityID":1646,"ADAoneway":0,"ADA":0,"ADA_New":0},"geometry":{"type":"Point","coordinates":[-73.87392925215778,40.68315265707736]}},{"type":"Feature","properties":{"FID":227,"line":"J","name":"Cypress Hills","notes":"J-all times","objectid":228,"FacilityID":1647,"ADAoneway":0,"ADA":0,"ADA_New":0},"geometry":{"type":"Point","coordinates":[-73.87332199882995,40.689616000838754]}},{"type":"Feature","properties":{"FID":228,"line":"J-Z","name":"75th St - Eldert Ln","notes":"Z-rush hours AM westbound, PM eastbound, J-all other times","objectid":229,"FacilityID":1648,"ADAoneway":0,"ADA":0,"ADA_New":0},"geometry":{"type":"Point","coordinates":[-73.86728799944963,40.691290001246735]}},{"type":"Feature","properties":{"FID":229,"line":"7","name":"69th St","notes":"7-all times","objectid":230,"FacilityID":1649,"ADAoneway":0,"ADA":0,"ADA_New":0},"geometry":{"type":"Point","coordinates":[-73.8964029993185,40.746324999410284]}},{"type":"Feature","properties":{"FID":230,"line":"7","name":"74th St - Broadway","notes":"7-all times","objectid":231,"FacilityID":1650,"ADAoneway":0,"ADA":1,"ADA_New":0},"geometry":{"type":"Point","coordinates":[-73.8912051289911,40.746867573829114]}},{"type":"Feature","properties":{"FID":231,"line":"E-M-R","name":"Woodhaven Blvd - Queens Mall","notes":"E-nights, R-all other times, M-weekdays and evenings","objectid":232,"FacilityID":1651,"ADAoneway":0,"ADA":0,"ADA_New":1},"geometry":{"type":"Point","coordinates":[-73.86943208612348,40.73309737380972]}},{"type":"Feature","properties":{"FID":232,"line":"M","name":"Myrtle - Wyckoff Aves","notes":"M-all times","objectid":233,"FacilityID":1652,"ADAoneway":0,"ADA":1,"ADA_New":0},"geometry":{"type":"Point","coordinates":[-73.91217899939602,40.69945400090837]}},{"type":"Feature","properties":{"FID":233,"line":"M","name":"Seneca Ave","notes":"M-all times","objectid":234,"FacilityID":1653,"ADAoneway":0,"ADA":0,"ADA_New":0},"geometry":{"type":"Point","coordinates":[-73.90758199885423,40.70291899894902]}},{"type":"Feature","properties":{"FID":234,"line":"L","name":"DeKalb Ave","notes":"L-all times","objectid":235,"FacilityID":1654,"ADAoneway":0,"ADA":0,"ADA_New":0},"geometry":{"type":"Point","coordinates":[-73.91823200219723,40.70369299961644]}},{"type":"Feature","properties":{"FID":235,"line":"7","name":"52nd St","notes":"7-all times","objectid":236,"FacilityID":1655,"ADAoneway":0,"ADA":0,"ADA_New":0},"geometry":{"type":"Point","coordinates":[-73.91254899891254,40.744149001021576]}},{"type":"Feature","properties":{"FID":236,"line":"E-M-R","name":"46th St","notes":"E-nights, R-all other times, M-weekdays and evenings","objectid":237,"FacilityID":1656,"ADAoneway":0,"ADA":0,"ADA_New":0},"geometry":{"type":"Point","coordinates":[-73.91352174995538,40.756316952608096]}},{"type":"Feature","properties":{"FID":237,"line":"E-M-R","name":"Northern Blvd","notes":"E-nights, R-all other times, M-weekdays and evenings","objectid":238,"FacilityID":1657,"ADAoneway":0,"ADA":0,"ADA_New":1},"geometry":{"type":"Point","coordinates":[-73.90606508052358,40.752824829236076]}},{"type":"Feature","properties":{"FID":238,"line":"7","name":"46th St","notes":"7-all times","objectid":239,"FacilityID":1658,"ADAoneway":0,"ADA":0,"ADA_New":1},"geometry":{"type":"Point","coordinates":[-73.91843500103973,40.74313200060382]}},{"type":"Feature","properties":{"FID":239,"line":"7","name":"82nd St - Jackson Hts","notes":"7-all times","objectid":240,"FacilityID":1659,"ADAoneway":0,"ADA":0,"ADA_New":0},"geometry":{"type":"Point","coordinates":[-73.88369700071884,40.747658999559135]}},{"type":"Feature","properties":{"FID":240,"line":"7","name":"90th St - Elmhurst Av","notes":"7-all times","objectid":241,"FacilityID":1660,"ADAoneway":0,"ADA":0,"ADA_New":0},"geometry":{"type":"Point","coordinates":[-73.87661299986985,40.74840800060913]}},{"type":"Feature","properties":{"FID":241,"line":"A","name":"Howard Beach - JFK Airport","notes":"A-all times","objectid":242,"FacilityID":1661,"ADAoneway":0,"ADA":1,"ADA_New":0},"geometry":{"type":"Point","coordinates":[-73.83030100071032,40.66047600004959]}},{"type":"Feature","properties":{"FID":242,"line":"A","name":"Aqueduct - North Conduit Av","notes":"A-all times","objectid":243,"FacilityID":1662,"ADAoneway":0,"ADA":1,"ADA_New":0},"geometry":{"type":"Point","coordinates":[-73.83405799948723,40.668234001699815]}},{"type":"Feature","properties":{"FID":243,"line":"E-F","name":"Briarwood - Van Wyck Blvd","notes":"E-evenings, weekends, nights, F-all times","objectid":244,"FacilityID":1663,"ADAoneway":0,"ADA":0,"ADA_New":1},"geometry":{"type":"Point","coordinates":[-73.82069263637443,40.70916181536946]}},{"type":"Feature","properties":{"FID":244,"line":"E-F-M-R","name":"Forest Hills - 71st Av","notes":"E,F-all times, M-weekdays and evenings, R-all times exc nights","objectid":245,"FacilityID":1664,"ADAoneway":0,"ADA":1,"ADA_New":0},"geometry":{"type":"Point","coordinates":[-73.84451672012669,40.72159430953587]}},{"type":"Feature","properties":{"FID":245,"line":"F","name":"Sutphin Blvd","notes":"F-all times","objectid":246,"FacilityID":1665,"ADAoneway":0,"ADA":0,"ADA_New":0},"geometry":{"type":"Point","coordinates":[-73.81083299897232,40.70541799906764]}},{"type":"Feature","properties":{"FID":246,"line":"E-J-Z","name":"Jamaica Ctr - Parsons / Archer","notes":"E,J-all times, Z-rush hours AM westbound, PM eastbound","objectid":247,"FacilityID":1666,"ADAoneway":0,"ADA":1,"ADA_New":0},"geometry":{"type":"Point","coordinates":[-73.80109632298924,40.70206737621188]}},{"type":"Feature","properties":{"FID":247,"line":"2-5","name":"225th St","notes":"2-all times, 5-rush hours AM southbound, PM northbound","objectid":248,"FacilityID":1667,"ADAoneway":0,"ADA":0,"ADA_New":0},"geometry":{"type":"Point","coordinates":[-73.86021461772737,40.88802825863786]}},{"type":"Feature","properties":{"FID":248,"line":"6","name":"Elder Ave","notes":"6-all times","objectid":249,"FacilityID":1668,"ADAoneway":0,"ADA":0,"ADA_New":0},"geometry":{"type":"Point","coordinates":[-73.87915899874777,40.82858400108929]}},{"type":"Feature","properties":{"FID":249,"line":"6","name":"Longwood Ave","notes":"6-all times","objectid":250,"FacilityID":1669,"ADAoneway":0,"ADA":0,"ADA_New":0},"geometry":{"type":"Point","coordinates":[-73.89643499897414,40.816103999972405]}},{"type":"Feature","properties":{"FID":250,"line":"N-W","name":"Astoria Blvd","notes":"N-all times, W part time","objectid":251,"FacilityID":1670,"ADAoneway":0,"ADA":0,"ADA_New":0},"geometry":{"type":"Point","coordinates":[-73.91809500109238,40.77003699949086]}},{"type":"Feature","properties":{"FID":251,"line":"N-W","name":"Astoria - Ditmars Blvd","notes":"N-all times, W part time","objectid":252,"FacilityID":1671,"ADAoneway":0,"ADA":0,"ADA_New":0},"geometry":{"type":"Point","coordinates":[-73.9120340001031,40.775035666523664]}},{"type":"Feature","properties":{"FID":252,"line":"2-5","name":"Jackson Ave","notes":"2-all times, 5-all times exc nights, skips rush hours AM southbound, PM northbound","objectid":253,"FacilityID":1672,"ADAoneway":0,"ADA":0,"ADA_New":0},"geometry":{"type":"Point","coordinates":[-73.9077019387083,40.81643746686396]}},{"type":"Feature","properties":{"FID":253,"line":"2-5","name":"Prospect Ave","notes":"2-all times, 5-all times exc nights, skips rush hours AM southbound, PM northbound","objectid":254,"FacilityID":1673,"ADAoneway":0,"ADA":0,"ADA_New":0},"geometry":{"type":"Point","coordinates":[-73.90177778730917,40.81948726483844]}},{"type":"Feature","properties":{"FID":254,"line":"6","name":"Cypress Ave","notes":"6-all times","objectid":255,"FacilityID":1674,"ADAoneway":0,"ADA":0,"ADA_New":0},"geometry":{"type":"Point","coordinates":[-73.91404199994753,40.8053680007636]}},{"type":"Feature","properties":{"FID":255,"line":"2-5","name":"174th St","notes":"2-all times, 5-all times exc nights, skips rush hours AM southbound, PM northbound","objectid":256,"FacilityID":1675,"ADAoneway":0,"ADA":0,"ADA_New":0},"geometry":{"type":"Point","coordinates":[-73.88769359812888,40.837195550170605]}},{"type":"Feature","properties":{"FID":256,"line":"2-5","name":"Allerton Ave","notes":"2-all times, 5-rush hours AM southbound, PM northbound","objectid":257,"FacilityID":1676,"ADAoneway":0,"ADA":0,"ADA_New":0},"geometry":{"type":"Point","coordinates":[-73.86723422851625,40.86548337793927]}},{"type":"Feature","properties":{"FID":257,"line":"6","name":"E 143rd St - St Mary's St","notes":"6-all times","objectid":258,"FacilityID":1677,"ADAoneway":0,"ADA":0,"ADA_New":0},"geometry":{"type":"Point","coordinates":[-73.90765699936489,40.80871900090143]}},{"type":"Feature","properties":{"FID":258,"line":"4","name":"Kingsbridge Rd","notes":"4-all times","objectid":259,"FacilityID":1678,"ADAoneway":0,"ADA":0,"ADA_New":1},"geometry":{"type":"Point","coordinates":[-73.89717400101743,40.867760000885795]}},{"type":"Feature","properties":{"FID":259,"line":"4","name":"Bedford Park Blvd - Lehman College","notes":"4-all times","objectid":260,"FacilityID":1679,"ADAoneway":0,"ADA":0,"ADA_New":0},"geometry":{"type":"Point","coordinates":[-73.89006400069478,40.87341199980121]}},{"type":"Feature","properties":{"FID":260,"line":"3","name":"Harlem - 148 St","notes":"3-all times","objectid":261,"FacilityID":1680,"ADAoneway":0,"ADA":0,"ADA_New":1},"geometry":{"type":"Point","coordinates":[-73.93647000005559,40.82388000080457]}},{"type":"Feature","properties":{"FID":261,"line":"4","name":"Mt Eden Ave","notes":"4-all times","objectid":262,"FacilityID":1681,"ADAoneway":0,"ADA":0,"ADA_New":0},"geometry":{"type":"Point","coordinates":[-73.9146849986034,40.84443400092679]}},{"type":"Feature","properties":{"FID":262,"line":"B-D","name":"Fordham Rd","notes":"B-rush hours, D-all times","objectid":263,"FacilityID":1682,"ADAoneway":0,"ADA":0,"ADA_New":0},"geometry":{"type":"Point","coordinates":[-73.89774900102401,40.861295998683495]}},{"type":"Feature","properties":{"FID":263,"line":"4","name":"170th St","notes":"4-all times","objectid":264,"FacilityID":1683,"ADAoneway":0,"ADA":0,"ADA_New":0},"geometry":{"type":"Point","coordinates":[-73.91779099745928,40.84007499993004]}},{"type":"Feature","properties":{"FID":264,"line":"B-D","name":"Bedford Park Blvd","notes":"B-rush hours, D-all times","objectid":265,"FacilityID":1684,"ADAoneway":0,"ADA":0,"ADA_New":0},"geometry":{"type":"Point","coordinates":[-73.88713799889574,40.87324399861646]}},{"type":"Feature","properties":{"FID":265,"line":"1","name":"Marble Hill - 225th St","notes":"1-all times","objectid":266,"FacilityID":1685,"ADAoneway":0,"ADA":0,"ADA_New":0},"geometry":{"type":"Point","coordinates":[-73.90983099923551,40.87456099941789]}},{"type":"Feature","properties":{"FID":266,"line":"1","name":"231st St","notes":"1-all times","objectid":267,"FacilityID":1686,"ADAoneway":0,"ADA":1,"ADA_New":0},"geometry":{"type":"Point","coordinates":[-73.90483400107873,40.87885599817935]}},{"type":"Feature","properties":{"FID":267,"line":"1","name":"215th St","notes":"1-all times","objectid":268,"FacilityID":1687,"ADAoneway":0,"ADA":0,"ADA_New":0},"geometry":{"type":"Point","coordinates":[-73.91527899954356,40.86944399946045]}},{"type":"Feature","properties":{"FID":268,"line":"1","name":"207th St","notes":"1-all times","objectid":269,"FacilityID":1688,"ADAoneway":0,"ADA":0,"ADA_New":0},"geometry":{"type":"Point","coordinates":[-73.91881900132312,40.864614000525854]}},{"type":"Feature","properties":{"FID":269,"line":"A","name":"Inwood - 207th St","notes":"A-all times","objectid":270,"FacilityID":1689,"ADAoneway":0,"ADA":1,"ADA_New":0},"geometry":{"type":"Point","coordinates":[-73.91989900100465,40.86807199999737]}},{"type":"Feature","properties":{"FID":270,"line":"1","name":"Van Cortlandt Park - 242nd St","notes":"1-all times","objectid":271,"FacilityID":1690,"ADAoneway":0,"ADA":0,"ADA_New":1},"geometry":{"type":"Point","coordinates":[-73.89858300049647,40.88924800011476]}},{"type":"Feature","properties":{"FID":271,"line":"2-5","name":"West Farms Sq - E Tremont Av","notes":"2-all times, 5-all times exc nights, skips rush hours AM southbound, PM northbound","objectid":272,"FacilityID":1691,"ADAoneway":0,"ADA":0,"ADA_New":0},"geometry":{"type":"Point","coordinates":[-73.87996127877184,40.84020763241799]}},{"type":"Feature","properties":{"FID":272,"line":"2-5","name":"219th St","notes":"2-all times, 5-rush hours AM southbound, PM northbound","objectid":273,"FacilityID":1692,"ADAoneway":0,"ADA":0,"ADA_New":0},"geometry":{"type":"Point","coordinates":[-73.8625097078866,40.883887974625274]}},{"type":"Feature","properties":{"FID":273,"line":"4","name":"Mosholu Pkwy","notes":"4-all times","objectid":274,"FacilityID":1693,"ADAoneway":0,"ADA":0,"ADA_New":1},"geometry":{"type":"Point","coordinates":[-73.88465499988732,40.87974999947229]}},{"type":"Feature","properties":{"FID":274,"line":"D","name":"Norwood - 205th St","notes":"D-all times","objectid":275,"FacilityID":1694,"ADAoneway":0,"ADA":0,"ADA_New":0},"geometry":{"type":"Point","coordinates":[-73.87885499918691,40.87481100011182]}},{"type":"Feature","properties":{"FID":275,"line":"2-5","name":"Burke Ave","notes":"2-all times, 5-rush hours AM southbound, PM northbound","objectid":276,"FacilityID":1695,"ADAoneway":0,"ADA":0,"ADA_New":0},"geometry":{"type":"Point","coordinates":[-73.86705361747603,40.87125880254771]}},{"type":"Feature","properties":{"FID":276,"line":"5","name":"Baychester Ave","notes":"5-all times","objectid":277,"FacilityID":1696,"ADAoneway":0,"ADA":0,"ADA_New":0},"geometry":{"type":"Point","coordinates":[-73.83859099802153,40.87866300037311]}},{"type":"Feature","properties":{"FID":277,"line":"5","name":"Eastchester - Dyre Ave","notes":"5-all times","objectid":278,"FacilityID":1697,"ADAoneway":0,"ADA":0,"ADA_New":0},"geometry":{"type":"Point","coordinates":[-73.8308340021742,40.88829999901007]}},{"type":"Feature","properties":{"FID":278,"line":"F","name":"Jamaica - 179th St","notes":"F-all times","objectid":279,"FacilityID":1698,"ADAoneway":0,"ADA":1,"ADA_New":0},"geometry":{"type":"Point","coordinates":[-73.78381700176453,40.712645666744045]}},{"type":"Feature","properties":{"FID":279,"line":"2","name":"Wakefield - 241st St","notes":"2-all times","objectid":280,"FacilityID":1699,"ADAoneway":0,"ADA":0,"ADA_New":1},"geometry":{"type":"Point","coordinates":[-73.8506199987954,40.903125000541245]}},{"type":"Feature","properties":{"FID":280,"line":"S","name":"Botanic Garden","notes":"S Franklin Av-Fulton St to Prospect Park-all times","objectid":281,"FacilityID":1700,"ADAoneway":0,"ADA":0,"ADA_New":0},"geometry":{"type":"Point","coordinates":[-73.95924499945693,40.670342666584396]}},{"type":"Feature","properties":{"FID":281,"line":"L","name":"Bushwick - Aberdeen","notes":"L-all times","objectid":282,"FacilityID":1701,"ADAoneway":0,"ADA":0,"ADA_New":0},"geometry":{"type":"Point","coordinates":[-73.90526176305106,40.68286062551184]}},{"type":"Feature","properties":{"FID":282,"line":"L","name":"Broadway Junction","notes":"L-all times","objectid":283,"FacilityID":1702,"ADAoneway":0,"ADA":0,"ADA_New":1},"geometry":{"type":"Point","coordinates":[-73.90311757920684,40.67845624842869]}},{"type":"Feature","properties":{"FID":283,"line":"5","name":"Gun Hill Rd","notes":"5-all times","objectid":284,"FacilityID":1703,"ADAoneway":0,"ADA":1,"ADA_New":0},"geometry":{"type":"Point","coordinates":[-73.84638400151765,40.86952599962676]}},{"type":"Feature","properties":{"FID":284,"line":"2-5","name":"E 180th St","notes":"2,5-all times","objectid":285,"FacilityID":1704,"ADAoneway":0,"ADA":1,"ADA_New":0},"geometry":{"type":"Point","coordinates":[-73.87334609510884,40.8418630412186]}},{"type":"Feature","properties":{"FID":285,"line":"1","name":"Dyckman St","notes":"1-all times","objectid":286,"FacilityID":1705,"ADAoneway":1,"ADA":0,"ADA_New":1},"geometry":{"type":"Point","coordinates":[-73.92553600006474,40.86053100138796]}},{"type":"Feature","properties":{"FID":286,"line":"1","name":"125th St","notes":"1-all times","objectid":287,"FacilityID":1706,"ADAoneway":0,"ADA":0,"ADA_New":0},"geometry":{"type":"Point","coordinates":[-73.95837200097044,40.815580999978934]}},{"type":"Feature","properties":{"FID":287,"line":"S","name":"Franklin Ave - Fulton St","notes":"S to Prospect Park-all times","objectid":288,"FacilityID":1707,"ADAoneway":0,"ADA":1,"ADA_New":0},"geometry":{"type":"Point","coordinates":[-73.95582700110425,40.68059566598263]}},{"type":"Feature","properties":{"FID":288,"line":"2-5","name":"149th St - Grand Concourse","notes":"2-all times, 5-all times exc nights","objectid":289,"FacilityID":1708,"ADAoneway":0,"ADA":0,"ADA_New":0},"geometry":{"type":"Point","coordinates":[-73.92672247438611,40.81833014409742]}},{"type":"Feature","properties":{"FID":289,"line":"2-5","name":"3rd Ave - 149th St","notes":"2-all times, 5-all times exc nights","objectid":290,"FacilityID":1709,"ADAoneway":0,"ADA":1,"ADA_New":0},"geometry":{"type":"Point","coordinates":[-73.91779152760981,40.816029252510006]}},{"type":"Feature","properties":{"FID":290,"line":"4","name":"167th St","notes":"4-all times","objectid":291,"FacilityID":1710,"ADAoneway":0,"ADA":0,"ADA_New":0},"geometry":{"type":"Point","coordinates":[-73.92139999784426,40.83553699933672]}},{"type":"Feature","properties":{"FID":291,"line":"6","name":"Brook Ave","notes":"6-all times","objectid":292,"FacilityID":1711,"ADAoneway":0,"ADA":0,"ADA_New":1},"geometry":{"type":"Point","coordinates":[-73.91923999909432,40.80756599987699]}},{"type":"Feature","properties":{"FID":292,"line":"7","name":"33rd St","notes":"7-all times","objectid":293,"FacilityID":1712,"ADAoneway":0,"ADA":0,"ADA_New":1},"geometry":{"type":"Point","coordinates":[-73.93099699953838,40.74458699983993]}},{"type":"Feature","properties":{"FID":293,"line":"7","name":"40th St","notes":"7-all times","objectid":294,"FacilityID":1713,"ADAoneway":0,"ADA":0,"ADA_New":0},"geometry":{"type":"Point","coordinates":[-73.9240159984882,40.74378100149132]}},{"type":"Feature","properties":{"FID":294,"line":"A-B-C-D","name":"145th St","notes":"A,D-all times, B-weekdays and evenings, C-all times exc nights","objectid":295,"FacilityID":1714,"ADAoneway":0,"ADA":0,"ADA_New":0},"geometry":{"type":"Point","coordinates":[-73.94408792823116,40.824766360871905]}},{"type":"Feature","properties":{"FID":295,"line":"B-D","name":"155th St","notes":"B-rush hours, D-all times, skips rush hours AM southbound, PM northbound","objectid":296,"FacilityID":1715,"ADAoneway":0,"ADA":0,"ADA_New":0},"geometry":{"type":"Point","coordinates":[-73.93820899811622,40.8301349999812]}},{"type":"Feature","properties":{"FID":296,"line":"B-D","name":"161st St - Yankee Stadium","notes":"B-rush hours, D-all times, skips rush hours AM southbound, PM northbound","objectid":297,"FacilityID":1716,"ADAoneway":0,"ADA":1,"ADA_New":0},"geometry":{"type":"Point","coordinates":[-73.92565099775477,40.827904998845845]}},{"type":"Feature","properties":{"FID":297,"line":"A-C","name":"Utica Ave","notes":"A-all times, C-all times exc nights","objectid":298,"FacilityID":1717,"ADAoneway":0,"ADA":1,"ADA_New":0},"geometry":{"type":"Point","coordinates":[-73.93072899914027,40.67936399950546]}},{"type":"Feature","properties":{"FID":298,"line":"E-M-R","name":"Steinway St","notes":"E-nights, R-all other times, M-weekdays and evenings","objectid":299,"FacilityID":1718,"ADAoneway":0,"ADA":0,"ADA_New":1},"geometry":{"type":"Point","coordinates":[-73.9205264716827,40.75698735912575]}},{"type":"Feature","properties":{"FID":299,"line":"J","name":"Kosciuszko St","notes":"J-all times","objectid":300,"FacilityID":1719,"ADAoneway":0,"ADA":0,"ADA_New":0},"geometry":{"type":"Point","coordinates":[-73.92850899927413,40.69317200129202]}},{"type":"Feature","properties":{"FID":300,"line":"J-Z","name":"Gates Ave","notes":"Z-rush hours AM westbound, PM eastbound, J-all other times","objectid":301,"FacilityID":1720,"ADAoneway":0,"ADA":0,"ADA_New":0},"geometry":{"type":"Point","coordinates":[-73.92215600150752,40.689583999013905]}},{"type":"Feature","properties":{"FID":301,"line":"M","name":"Central Ave","notes":"M-all times","objectid":302,"FacilityID":1721,"ADAoneway":0,"ADA":0,"ADA_New":0},"geometry":{"type":"Point","coordinates":[-73.92724299902838,40.69787300011831]}},{"type":"Feature","properties":{"FID":302,"line":"M","name":"Knickerbocker Ave","notes":"M-all times","objectid":303,"FacilityID":1722,"ADAoneway":0,"ADA":0,"ADA_New":0},"geometry":{"type":"Point","coordinates":[-73.91972000188625,40.69866000123805]}},{"type":"Feature","properties":{"FID":303,"line":"N-W","name":"30th Ave","notes":"N-all times, W part time","objectid":304,"FacilityID":1723,"ADAoneway":0,"ADA":0,"ADA_New":0},"geometry":{"type":"Point","coordinates":[-73.9214790001739,40.76677866673298]}},{"type":"Feature","properties":{"FID":304,"line":"L","name":"Jefferson St","notes":"L-all times","objectid":305,"FacilityID":1724,"ADAoneway":0,"ADA":0,"ADA_New":1},"geometry":{"type":"Point","coordinates":[-73.9229130000312,40.706606665988716]}},{"type":"Feature","properties":{"FID":305,"line":"L","name":"Morgan Ave","notes":"L-all times","objectid":306,"FacilityID":1725,"ADAoneway":0,"ADA":0,"ADA_New":0},"geometry":{"type":"Point","coordinates":[-73.93314700024209,40.70615166680729]}},{"type":"Feature","properties":{"FID":306,"line":"E-M-R","name":"Queens Plz","notes":"E-all times, M-weekdays and evenings, R-all times exc nights","objectid":307,"FacilityID":1726,"ADAoneway":0,"ADA":1,"ADA_New":0},"geometry":{"type":"Point","coordinates":[-73.93713823965695,40.74891771986323]}},{"type":"Feature","properties":{"FID":307,"line":"F","name":"18th Ave","notes":"F-all times","objectid":308,"FacilityID":1727,"ADAoneway":0,"ADA":0,"ADA_New":0},"geometry":{"type":"Point","coordinates":[-73.97697099965796,40.62975466638584]}},{"type":"Feature","properties":{"FID":308,"line":"R","name":"77th St","notes":"R-all times","objectid":309,"FacilityID":1728,"ADAoneway":0,"ADA":0,"ADA_New":0},"geometry":{"type":"Point","coordinates":[-74.0255099996266,40.629741666886915]}},{"type":"Feature","properties":{"FID":309,"line":"R","name":"Bay Ridge Ave","notes":"R-all times","objectid":310,"FacilityID":1729,"ADAoneway":0,"ADA":0,"ADA_New":0},"geometry":{"type":"Point","coordinates":[-74.02337699950728,40.63496666682377]}},{"type":"Feature","properties":{"FID":310,"line":"D","name":"50th St","notes":"D-all times","objectid":311,"FacilityID":1730,"ADAoneway":0,"ADA":0,"ADA_New":0},"geometry":{"type":"Point","coordinates":[-73.9946587805514,40.636260890961395]}},{"type":"Feature","properties":{"FID":311,"line":"N","name":"Ft Hamilton Pkwy","notes":"N-all times","objectid":312,"FacilityID":1731,"ADAoneway":0,"ADA":0,"ADA_New":0},"geometry":{"type":"Point","coordinates":[-74.00535100046275,40.63138566722445]}},{"type":"Feature","properties":{"FID":312,"line":"D","name":"25th Ave","notes":"D-all times","objectid":313,"FacilityID":1732,"ADAoneway":0,"ADA":0,"ADA_New":0},"geometry":{"type":"Point","coordinates":[-73.98682900011477,40.59770366695856]}},{"type":"Feature","properties":{"FID":313,"line":"D","name":"Bay Pky","notes":"D-all times","objectid":314,"FacilityID":1733,"ADAoneway":0,"ADA":1,"ADA_New":0},"geometry":{"type":"Point","coordinates":[-73.9936762000529,40.601950461572315]}},{"type":"Feature","properties":{"FID":314,"line":"N","name":"20th Ave","notes":"N-all times","objectid":315,"FacilityID":1734,"ADAoneway":0,"ADA":0,"ADA_New":0},"geometry":{"type":"Point","coordinates":[-73.98452199846113,40.617108999866005]}},{"type":"Feature","properties":{"FID":315,"line":"N","name":"18th Ave","notes":"N-all times","objectid":316,"FacilityID":1735,"ADAoneway":0,"ADA":0,"ADA_New":0},"geometry":{"type":"Point","coordinates":[-73.99045399865993,40.620686997680025]}},{"type":"Feature","properties":{"FID":316,"line":"R","name":"Bay Ridge - 95th St","notes":"R-all times","objectid":317,"FacilityID":1736,"ADAoneway":0,"ADA":0,"ADA_New":0},"geometry":{"type":"Point","coordinates":[-74.03087600085765,40.61662166725951]}},{"type":"Feature","properties":{"FID":317,"line":"R","name":"86th St","notes":"R-all times","objectid":318,"FacilityID":1737,"ADAoneway":0,"ADA":0,"ADA_New":0},"geometry":{"type":"Point","coordinates":[-74.0283979999864,40.62268666715025]}},{"type":"Feature","properties":{"FID":318,"line":"D","name":"79th St","notes":"D-all times","objectid":319,"FacilityID":1738,"ADAoneway":0,"ADA":0,"ADA_New":0},"geometry":{"type":"Point","coordinates":[-74.00058287431507,40.61315892569516]}},{"type":"Feature","properties":{"FID":319,"line":"D","name":"71st St","notes":"D-all times","objectid":320,"FacilityID":1739,"ADAoneway":0,"ADA":0,"ADA_New":0},"geometry":{"type":"Point","coordinates":[-73.99884094850685,40.61925870977273]}},{"type":"Feature","properties":{"FID":320,"line":"D","name":"20th Ave","notes":"D-all times","objectid":321,"FacilityID":1740,"ADAoneway":0,"ADA":0,"ADA_New":0},"geometry":{"type":"Point","coordinates":[-73.99817432157568,40.60467699816932]}},{"type":"Feature","properties":{"FID":321,"line":"D","name":"18th Ave","notes":"D-all times","objectid":322,"FacilityID":1741,"ADAoneway":0,"ADA":0,"ADA_New":1},"geometry":{"type":"Point","coordinates":[-74.00159259239406,40.60773573171741]}},{"type":"Feature","properties":{"FID":322,"line":"D","name":"62nd St","notes":"D-all times","objectid":323,"FacilityID":1742,"ADAoneway":0,"ADA":1,"ADA_New":0},"geometry":{"type":"Point","coordinates":[-73.99685724994863,40.626224462922195]}},{"type":"Feature","properties":{"FID":323,"line":"N","name":"New Utrecht Ave","notes":"N-all times","objectid":324,"FacilityID":1743,"ADAoneway":0,"ADA":1,"ADA_New":0},"geometry":{"type":"Point","coordinates":[-73.99635300025969,40.62484166725887]}},{"type":"Feature","properties":{"FID":324,"line":"F","name":"Ave U","notes":"F-all times","objectid":325,"FacilityID":1744,"ADAoneway":0,"ADA":0,"ADA_New":0},"geometry":{"type":"Point","coordinates":[-73.97337641974885,40.59592482551748]}},{"type":"Feature","properties":{"FID":325,"line":"F","name":"Kings Hwy","notes":"F-all times","objectid":326,"FacilityID":1745,"ADAoneway":0,"ADA":0,"ADA_New":1},"geometry":{"type":"Point","coordinates":[-73.9723553085244,40.603258405128265]}},{"type":"Feature","properties":{"FID":326,"line":"B-Q","name":"Brighton Beach","notes":"B-weekdays and evenings, Q-all times","objectid":327,"FacilityID":1746,"ADAoneway":0,"ADA":0,"ADA_New":0},"geometry":{"type":"Point","coordinates":[-73.96135378598797,40.577710196642435]}},{"type":"Feature","properties":{"FID":327,"line":"B-Q","name":"Sheepshead Bay","notes":"B-weekdays and evenings, Q-all times","objectid":328,"FacilityID":1747,"ADAoneway":0,"ADA":0,"ADA_New":1},"geometry":{"type":"Point","coordinates":[-73.95405791257907,40.58654754707536]}},{"type":"Feature","properties":{"FID":328,"line":"Q","name":"Ave U","notes":"Q-all times","objectid":329,"FacilityID":1748,"ADAoneway":0,"ADA":0,"ADA_New":0},"geometry":{"type":"Point","coordinates":[-73.95581122316301,40.59930895095475]}},{"type":"Feature","properties":{"FID":329,"line":"B-Q","name":"Kings Hwy","notes":"B-weekdays and evenings, Q-all times","objectid":330,"FacilityID":1749,"ADAoneway":0,"ADA":1,"ADA_New":0},"geometry":{"type":"Point","coordinates":[-73.95760873538083,40.608638645396006]}},{"type":"Feature","properties":{"FID":330,"line":"N","name":"Ave U","notes":"N-all times","objectid":331,"FacilityID":1750,"ADAoneway":0,"ADA":0,"ADA_New":0},"geometry":{"type":"Point","coordinates":[-73.97908400099428,40.597235999920436]}},{"type":"Feature","properties":{"FID":331,"line":"N","name":"Kings Hwy","notes":"N-all times","objectid":332,"FacilityID":1751,"ADAoneway":0,"ADA":0,"ADA_New":1},"geometry":{"type":"Point","coordinates":[-73.98037300229343,40.60405899980493]}},{"type":"Feature","properties":{"FID":332,"line":"F","name":"Neptune Ave","notes":"F-all times","objectid":333,"FacilityID":1752,"ADAoneway":0,"ADA":0,"ADA_New":1},"geometry":{"type":"Point","coordinates":[-73.97459272818807,40.580738758491464]}},{"type":"Feature","properties":{"FID":333,"line":"F","name":"Ave X","notes":"F-all times","objectid":334,"FacilityID":1753,"ADAoneway":0,"ADA":0,"ADA_New":0},"geometry":{"type":"Point","coordinates":[-73.97426599968905,40.589449666625285]}},{"type":"Feature","properties":{"FID":334,"line":"D","name":"Bay 50th St","notes":"D-all times","objectid":335,"FacilityID":1754,"ADAoneway":0,"ADA":0,"ADA_New":0},"geometry":{"type":"Point","coordinates":[-73.98376500045946,40.58884066651933]}},{"type":"Feature","properties":{"FID":335,"line":"N","name":"Gravesend - 86th St","notes":"N-all times","objectid":336,"FacilityID":1755,"ADAoneway":0,"ADA":0,"ADA_New":0},"geometry":{"type":"Point","coordinates":[-73.97818899936274,40.59246500088859]}},{"type":"Feature","properties":{"FID":336,"line":"F","name":"Ave P","notes":"F-all times","objectid":337,"FacilityID":1756,"ADAoneway":0,"ADA":0,"ADA_New":0},"geometry":{"type":"Point","coordinates":[-73.97300281528751,40.608842808949916]}},{"type":"Feature","properties":{"FID":337,"line":"F","name":"Ave N","notes":"F-all times","objectid":338,"FacilityID":1757,"ADAoneway":0,"ADA":0,"ADA_New":0},"geometry":{"type":"Point","coordinates":[-73.97404850873143,40.61435671190883]}},{"type":"Feature","properties":{"FID":338,"line":"F","name":"Bay Pky","notes":"F-all times","objectid":339,"FacilityID":1758,"ADAoneway":0,"ADA":0,"ADA_New":0},"geometry":{"type":"Point","coordinates":[-73.9752569782215,40.62073162316788]}},{"type":"Feature","properties":{"FID":339,"line":"Q","name":"Ave M","notes":"Q-all times","objectid":340,"FacilityID":1759,"ADAoneway":0,"ADA":0,"ADA_New":0},"geometry":{"type":"Point","coordinates":[-73.9592431052215,40.617397744443736]}},{"type":"Feature","properties":{"FID":340,"line":"N","name":"Bay Pky","notes":"N-all times","objectid":341,"FacilityID":1760,"ADAoneway":0,"ADA":0,"ADA_New":0},"geometry":{"type":"Point","coordinates":[-73.98178001069293,40.61145578989005]}},{"type":"Feature","properties":{"FID":341,"line":"F","name":"Ave I","notes":"F-all times","objectid":342,"FacilityID":1761,"ADAoneway":0,"ADA":0,"ADA_New":1},"geometry":{"type":"Point","coordinates":[-73.97606933170925,40.62501744019143]}},{"type":"Feature","properties":{"FID":342,"line":"Q","name":"Ave J","notes":"Q-all times","objectid":343,"FacilityID":1762,"ADAoneway":0,"ADA":0,"ADA_New":0},"geometry":{"type":"Point","coordinates":[-73.96069316246925,40.625022819915166]}},{"type":"Feature","properties":{"FID":343,"line":"Q","name":"Ave H","notes":"Q-all times","objectid":344,"FacilityID":1763,"ADAoneway":0,"ADA":1,"ADA_New":1},"geometry":{"type":"Point","coordinates":[-73.96151793942495,40.62920837758969]}},{"type":"Feature","properties":{"FID":344,"line":"Q","name":"Neck Rd","notes":"Q-all times","objectid":345,"FacilityID":1764,"ADAoneway":0,"ADA":0,"ADA_New":0},"geometry":{"type":"Point","coordinates":[-73.95507827493762,40.59532169111695]}},{"type":"Feature","properties":{"FID":345,"line":"F","name":"21st St - Queensbridge","notes":"F-all times","objectid":346,"FacilityID":1765,"ADAoneway":0,"ADA":1,"ADA_New":0},"geometry":{"type":"Point","coordinates":[-73.94193761457447,40.75373927087553]}},{"type":"Feature","properties":{"FID":346,"line":"A-C-E","name":"50th St","notes":"A-nights, C-all other times, E-all times","objectid":347,"FacilityID":1766,"ADAoneway":1,"ADA":0,"ADA_New":0},"geometry":{"type":"Point","coordinates":[-73.98598400026407,40.76245599925997]}},{"type":"Feature","properties":{"FID":347,"line":"B-D-E","name":"7th Ave","notes":"D,E-all times, B-weekdays and evenings","objectid":348,"FacilityID":1767,"ADAoneway":0,"ADA":0,"ADA_New":1},"geometry":{"type":"Point","coordinates":[-73.98169782344476,40.76297015245628]}},{"type":"Feature","properties":{"FID":348,"line":"B-D-F-M","name":"47th-50th Sts - Rockefeller Ctr","notes":"B,M-weekdays and evenings, D,F-all times","objectid":349,"FacilityID":1768,"ADAoneway":0,"ADA":1,"ADA_New":0},"geometry":{"type":"Point","coordinates":[-73.98133100227702,40.75864100159815]}},{"type":"Feature","properties":{"FID":349,"line":"F","name":"57th St","notes":"F-all times","objectid":350,"FacilityID":1769,"ADAoneway":0,"ADA":0,"ADA_New":0},"geometry":{"type":"Point","coordinates":[-73.97736800085171,40.76408500081713]}},{"type":"Feature","properties":{"FID":350,"line":"F-Q","name":"Lexington Ave - 63rd St","notes":"F-all times, Q all times","objectid":351,"FacilityID":1770,"ADAoneway":0,"ADA":1,"ADA_New":0},"geometry":{"type":"Point","coordinates":[-73.96608964413245,40.76461809442373]}},{"type":"Feature","properties":{"FID":351,"line":"F","name":"Roosevelt Island - Main St","notes":"F-all times","objectid":352,"FacilityID":1771,"ADAoneway":0,"ADA":1,"ADA_New":0},"geometry":{"type":"Point","coordinates":[-73.95323499978866,40.75917199967108]}},{"type":"Feature","properties":{"FID":352,"line":"A-B-C-D","name":"59th St - Columbus Circle","notes":"A,D-all times, B-weekdays and evenings, C-all times exc nights","objectid":353,"FacilityID":1772,"ADAoneway":0,"ADA":1,"ADA_New":0},"geometry":{"type":"Point","coordinates":[-73.98164872301398,40.768249531776064]}},{"type":"Feature","properties":{"FID":353,"line":"N-Q-R-W","name":"49th St","notes":"N-all times, Q-all times exc weekends, R-all times exc nights, W part time","objectid":354,"FacilityID":1773,"ADAoneway":1,"ADA":0,"ADA_New":0},"geometry":{"type":"Point","coordinates":[-73.98420956591096,40.759801973870694]}},{"type":"Feature","properties":{"FID":354,"line":"N-Q-R-W","name":"57th St","notes":"N,Q-all times, R-all times exc nights, W part time","objectid":355,"FacilityID":1774,"ADAoneway":0,"ADA":0,"ADA_New":0},"geometry":{"type":"Point","coordinates":[-73.98072973372128,40.76456552501829]}},{"type":"Feature","properties":{"FID":355,"line":"N-R-W","name":"5th Ave - 59th St","notes":"N-all times, R-all times exc nights, W part time","objectid":356,"FacilityID":1775,"ADAoneway":0,"ADA":0,"ADA_New":0},"geometry":{"type":"Point","coordinates":[-73.97334700047045,40.764810999755284]}},{"type":"Feature","properties":{"FID":356,"line":"N-R-W","name":"Lexington Ave - 59th St","notes":"N-all times, R-all times exc nights, W part time","objectid":357,"FacilityID":1776,"ADAoneway":0,"ADA":0,"ADA_New":1},"geometry":{"type":"Point","coordinates":[-73.96737501711436,40.762708855394564]}},{"type":"Feature","properties":{"FID":357,"line":"1-2-3","name":"34th St - Penn Station","notes":"1,2,3-all times","objectid":358,"FacilityID":1777,"ADAoneway":0,"ADA":1,"ADA_New":0},"geometry":{"type":"Point","coordinates":[-73.99105699913983,40.75037300003949]}},{"type":"Feature","properties":{"FID":358,"line":"1-2-3","name":"Times Sq - 42nd St","notes":"1,2,3-all times","objectid":359,"FacilityID":1778,"ADAoneway":0,"ADA":1,"ADA_New":0},"geometry":{"type":"Point","coordinates":[-73.98749500051885,40.75528999995681]}},{"type":"Feature","properties":{"FID":359,"line":"A-C","name":"Fulton St","notes":"A-all times, C-all times exc nights","objectid":360,"FacilityID":1779,"ADAoneway":0,"ADA":1,"ADA_New":0},"geometry":{"type":"Point","coordinates":[-74.00762309323994,40.71016216530185]}},{"type":"Feature","properties":{"FID":360,"line":"A-C","name":"Chambers St","notes":"A-all times, C-all times exc nights","objectid":361,"FacilityID":1780,"ADAoneway":0,"ADA":0,"ADA_New":0},"geometry":{"type":"Point","coordinates":[-74.00858473570133,40.714111000774025]}},{"type":"Feature","properties":{"FID":361,"line":"A-C-E","name":"42nd St - Port Authority Bus Term","notes":"A,E-all times, C-all times exc nights","objectid":362,"FacilityID":1781,"ADAoneway":0,"ADA":1,"ADA_New":0},"geometry":{"type":"Point","coordinates":[-73.98973500085859,40.757307998551504]}},{"type":"Feature","properties":{"FID":362,"line":"G","name":"Myrtle-Willoughby Aves","notes":"G-all times","objectid":363,"FacilityID":1782,"ADAoneway":0,"ADA":0,"ADA_New":0},"geometry":{"type":"Point","coordinates":[-73.94906699890156,40.69461899903765]}},{"type":"Feature","properties":{"FID":363,"line":"G","name":"Flushing Ave","notes":"G-all times","objectid":364,"FacilityID":1783,"ADAoneway":0,"ADA":0,"ADA_New":0},"geometry":{"type":"Point","coordinates":[-73.9502340010257,40.70037666622154]}},{"type":"Feature","properties":{"FID":364,"line":"F-M","name":"23rd St","notes":"F-all times, M-weekdays and evenings","objectid":365,"FacilityID":1784,"ADAoneway":0,"ADA":0,"ADA_New":0},"geometry":{"type":"Point","coordinates":[-73.99276500471389,40.742954317826005]}},{"type":"Feature","properties":{"FID":365,"line":"B-D-F-M","name":"Herald Sq - 34th St","notes":"B,M-weekdays and evenings, D,F-all times","objectid":366,"FacilityID":1785,"ADAoneway":0,"ADA":1,"ADA_New":0},"geometry":{"type":"Point","coordinates":[-73.98777189072918,40.74978939990011]}},{"type":"Feature","properties":{"FID":366,"line":"A-C-G","name":"Hoyt - Schermerhorn Sts","notes":"A,G-all times, C-all times exc nights","objectid":367,"FacilityID":1786,"ADAoneway":0,"ADA":0,"ADA_New":1},"geometry":{"type":"Point","coordinates":[-73.98503624034139,40.68840847580642]}},{"type":"Feature","properties":{"FID":367,"line":"A-C-F","name":"Jay St - MetroTech","notes":"A,F-all times, C-all times exc nights","objectid":368,"FacilityID":1787,"ADAoneway":0,"ADA":1,"ADA_New":0},"geometry":{"type":"Point","coordinates":[-73.98721815267317,40.692470636847084]}},{"type":"Feature","properties":{"FID":368,"line":"F","name":"East Broadway","notes":"F-all times","objectid":369,"FacilityID":1788,"ADAoneway":0,"ADA":0,"ADA_New":0},